,역이름,위도,경도,04시-05시 승차인원,04시-05시 하차인원,05시-06시 승차인원,05시-06시 하차인원,06시-07시 승차인원,06시-07시 하차인원,07시-08시 승차인원,07시-08시 하차인원,08시-09시 승차인원,08시-09시 하차인원,09시-10시 승차인원,09시-10시 하차인원,10시-11시 승차인원,10시-11시 하차인원,11시-12시 승차인원,11시-12시 하차인원,12시-13시 승차인원,12시-13시 하차인원,13시-14시 승차인원,13시-14시 하차인원,14시-15시 승차인원,14시-15시 하차인원,15시-16시 승차인원,15시-16시 하차인원,16시-17시 승차인원,16시-17시 하차인원,17시-18시 승차인원,17시-18시 하차인원,18시-19시 승차인원,18시-19시 하차인원,19시-20시 승차인원,19시-20시 하차인원,20시-21시 승차인원,20시-21시 하차인원,21시-22시 승차인원,21시-22시 하차인원,22시-23시 승차인원,22시-23시 하차인원,23시-24시 승차인원,23시-24시 하차인원,00시-01시 승차인원,00시-01시 하차인원,01시-02시 승차인원,01시-02시 하차인원,02시-03시 승차인원,02시-03시 하차인원,03시-04시 승차인원,03시-04시 하차인원
0,가락시장역,37.493092048704,127.118258210622,4,0,2551,635,6681,5265,19314,11284,21145,30883,14385,14806,12171,10448,11837,10588,12066,10552,12399,11419,12563,11816,13186,13004,14863,14719,19033,16770,28828,23162,12056,16306,8649,10378,8398,8590,6608,9207,888,3770,3,821,0,0,0,1,0,0
1,가락시장역,37.493092048704,127.118258210622,20,0,2639,2310,5333,6175,10056,14564,12101,37907,9089,16921,8949,12390,9579,11138,9842,9460,10265,11133,11542,10759,13318,10171,13233,12127,17570,13403,28432,18805,11611,13604,9666,8398,11062,7432,9566,6719,1627,3064,7,1103,0,0,0,0,0,0
4,가산디지털단지역,37.4803887400743,126.882643680055,614,6,7546,5884,8909,24805,21503,121712,24065,399782,16819,227179,16576,58679,21561,35486,26984,32358,31409,32836,36615,29327,45622,27919,64883,26587,184864,28761,330730,34202,139411,24853,72724,13009,63815,11082,37859,11424,6865,5450,41,452,0,0,0,0,0,0
5,가산디지털단지역,37.4803887400743,126.882643680055,1292,2,7483,1760,7360,12656,14218,52526,14104,158656,10128,80907,9310,22179,9952,15336,11858,14937,12928,15511,13595,14543,15653,14813,23350,17640,63751,21972,114486,27835,47755,20091,26798,11680,25147,11041,18339,11750,2336,4734,89,901,0,0,0,0,0,0
8,가양역,37.5614294894973,126.854402192224,40,0,13684,1597,23835,9154,70230,24679,71699,40946,38499,24723,27789,15452,26416,16763,27774,17376,26140,20819,23729,21621,24855,24686,28661,30071,34018,38226,41239,64997,19210,57544,13011,32931,11657,31205,8836,32950,1624,14411,1,455,0,0,0,0,0,0
9,가오리역,37.6416341556655,127.01676898865,1,1,2137,280,5962,1208,15932,2672,16258,5077,10288,3407,7177,4083,6346,3951,5997,4755,6104,5273,5298,5437,5090,6446,4975,8053,5233,8414,4169,12974,2792,12986,1944,7408,1523,6059,1213,5765,313,2641,1,3,0,0,0,0,0,0
10,가좌역,37.5687505576544,126.914810592109,0,0,2711,255,6836,3133,19966,3826,24336,8142,10476,7241,7582,5384,6863,5021,7527,5129,6611,7051,6430,6973,6519,7356,8179,9836,8024,11632,8390,17390,4895,13972,3480,7780,3055,5612,2616,6613,601,3908,3,309,0,0,0,0,0,0
11,강남구청역,37.5172008632289,127.041287183507,1,0,1352,1802,3306,12739,6705,33238,8831,106626,8127,95093,8427,35573,10131,22070,12261,19185,14387,20333,18079,16358,23257,14958,27856,15113,43460,16926,86081,19517,51903,11948,31189,7447,32640,6248,29906,5628,4349,2475,5,255,0,0,0,0,0,0
12,강남구청역,37.5172008632289,127.041287183507,7,0,967,527,2573,4584,7185,14985,9516,56001,7866,41336,7544,18430,8573,13461,9688,13102,11004,14009,12462,13098,13561,12706,16454,13020,25475,15838,49675,20800,25214,12844,14172,6669,14417,5368,11569,5907,1614,2444,26,465,0,0,0,0,0,0
15,강남역,37.4980854411503,127.027977657727,85,6,5464,10853,15861,49435,36772,151261,58759,321542,46399,311718,46127,143770,62808,101593,79250,97700,95124,116716,102147,102382,126969,94677,143646,97346,222349,123126,335143,173742,203119,99700,152318,42059,202148,33576,195879,36941,24062,12861,7,4,0,0,0,0,0,0
17,강동구청역,37.530193178362,127.120443701344,8,1,4633,944,10695,4871,31486,14566,40603,33764,21025,13858,13342,9930,11423,9037,12054,9240,12150,11752,11669,11399,11967,11950,13799,15767,16892,20892,26905,34650,10407,26846,7009,14828,6843,13305,4968,15267,980,5466,1,404,0,0,0,0,0,0
18,강동역,37.5358747268317,127.132378184615,67,1,10617,1521,20050,11406,56077,28371,67190,50356,34161,27273,23095,17692,21294,15224,22700,16361,21845,19628,21214,18551,22301,20930,25231,24088,38703,32805,46582,52884,21342,42215,14379,25501,12379,23339,10085,26947,2402,13681,8,1090,0,0,0,0,0,0
19,강변역,37.535118053119,127.094722999066,8,1,7826,1835,25393,18766,76778,23506,104789,44325,70978,35345,48914,32926,44339,30736,44542,34894,42969,39456,39831,40949,39952,46818,43017,53897,50211,70674,56897,107654,40680,75727,29492,47210,26635,39063,18487,47656,4756,13648,3,292,0,0,0,0,0,0
20,개롱역,37.4979574766853,127.13507053201,0,0,3295,987,8322,3211,24356,7878,20305,17439,11267,8406,8522,6081,7700,5947,8874,6436,8382,7164,7497,7502,8573,8738,10140,10665,11991,14375,13567,19639,6669,20253,4414,9991,4571,9009,2993,11263,600,3867,3,595,0,0,0,0,0,0
21,개봉역,37.4946344799821,126.858693356963,1196,8,17907,5659,36452,12422,92733,15276,84593,23421,48886,18056,31920,14856,28186,17670,28697,21059,27287,21865,23802,25345,22767,30836,26511,38462,29626,57076,29418,92195,17091,71597,12415,39080,11779,37442,9009,35022,2376,15313,30,902,0,0,0,0,0,0
22,개포동역,37.4891322712554,127.066102609769,2,0,687,1011,3267,6782,8362,5893,8911,9584,5240,6559,4751,4762,4280,3705,5084,4161,5230,4885,4981,4600,5274,4837,8991,5360,9663,7094,8903,9824,5118,8369,3648,4658,3718,4244,3521,5031,650,2034,5,58,0,0,0,0,0,0
23,개화산역,37.5725335465697,126.806814324288,3,0,3917,350,7702,3443,21605,5757,19211,11754,9952,5717,6674,5171,6373,5061,7089,5568,7547,5875,6351,6379,6878,7408,7768,7991,9805,9365,10996,14987,4754,15016,2955,9081,2621,7784,2044,8398,491,3898,2,422,0,0,0,0,0,0
24,거여역,37.4933160395092,127.143769291109,0,0,5088,560,11506,7952,34589,9064,29554,17947,15465,9466,10973,5911,9732,6491,11313,8187,9925,8107,9022,8213,9070,9996,14149,13161,15025,16450,14625,24145,6436,23753,4672,11348,4394,10744,2815,11761,628,5986,4,598,0,0,0,0,0,0
25,건대입구역,37.5403976062717,127.069202907348,143,5,13027,1840,19746,18737,50914,27089,87006,61722,57609,46301,32924,35130,30990,36684,36026,44906,39527,52447,40481,52094,44330,56494,53351,66396,65673,93934,81476,140517,59199,93943,58731,48880,83494,43387,77882,49330,10490,21087,11,2046,0,0,0,0,0,0
26,건대입구역,37.5403976062717,127.069202907348,30,2,3279,875,4063,6454,11991,17250,18102,32816,14246,24668,11473,17875,12242,15475,13376,17252,14591,19849,16306,18814,19730,18082,23165,19061,32719,24918,31702,36541,22044,25041,24763,12270,23184,10341,21657,10464,5055,4710,2,1748,0,0,0,0,0,0
29,경복궁역,37.5757880985498,126.973668718282,51,1,2365,1529,5042,13202,13067,42253,19448,105054,17548,48842,13820,29770,15255,27366,17640,27073,21453,27879,24927,25662,31699,21774,41977,23031,59190,25759,93232,31874,38510,20893,31943,10317,35720,8688,23219,9985,2386,3931,2,84,0,0,0,1,0,0
30,경찰병원역,37.4959868949932,127.124482367866,19,1,2249,164,7354,2846,21736,8283,25115,30835,14221,13935,10598,8910,9120,6661,8457,7029,9097,8574,8991,8039,9344,8082,9429,9170,14380,12687,20809,20743,6984,16706,5403,10057,5336,8065,3666,8581,503,3516,0,695,0,0,0,0,0,0
31,고덕역,37.5550395608369,127.154163861206,1,0,3140,1474,11531,5845,31557,14854,24565,19307,14376,10920,12902,9498,12710,8558,12689,10369,12343,11937,12534,11433,14239,12710,18712,13766,18708,16827,15848,26612,8638,26537,6644,12429,6775,10961,6264,11311,1514,6310,6,515,0,0,0,0,0,0
32,고려대역,37.5904356061366,127.036300356742,23,0,3561,766,7225,3578,20488,11283,24652,26757,12878,10867,8306,7358,8498,7085,9396,7511,10969,9832,9416,8009,10156,8585,13964,10044,20127,12511,18913,21440,9039,17801,6855,10669,7516,10155,6715,11627,1596,6043,4,103,0,1,0,0,0,0
33,고속터미널역,37.5045398449292,127.005134579686,138,2,4353,3024,6534,27745,23537,42694,38512,67092,39823,86156,40615,74622,50745,79673,61212,74930,67373,76892,74561,78732,81436,80555,93686,79499,110864,86072,119802,103187,96092,63666,107908,36518,68874,27725,45065,23248,10858,8284,6,231,0,0,0,0,0,0
34,고속터미널역,37.5045398449292,127.005134579686,12,6,1076,2649,2858,23556,9816,37236,15873,50481,17284,33365,17799,22840,19623,19536,20276,18592,20730,22196,21590,20312,30516,15902,34215,15766,51549,16722,49858,20052,28828,13250,29119,7603,26613,7548,22145,5510,5333,1933,10,131,0,0,0,0,0,0
35,고속터미널역,37.5045398449292,127.005134579686,12,0,1749,1293,4868,12233,15180,17253,18873,25835,14184,25434,12182,24993,14066,26740,16617,26486,18173,28753,20100,28760,22908,30508,27652,30859,30678,34412,31054,42984,26387,27574,22748,17075,18131,13890,16076,14017,3785,4557,2,25,0,0,0,0,0,0
42,공덕역,37.5445344743163,126.95143307723,17,0,1699,935,5441,6677,21588,33219,28566,84769,13616,40727,10440,16742,12646,14172,14726,13072,15713,13868,15457,13052,16176,13302,22175,15728,38271,23809,69438,44136,25736,22373,18641,11765,21079,10130,19028,11870,2372,4441,8,311,0,0,0,0,0,0
43,공덕역,37.5445344743163,126.95143307723,100,1,4568,1931,7350,9579,20539,38009,27784,97577,18044,49521,15315,22566,17115,17395,18496,17430,20372,17923,20863,17665,24134,17060,30298,19205,49986,25073,87723,37697,34543,24433,25126,12865,27257,12313,24010,14678,4049,5522,18,1413,0,0,0,0,0,0
44,공덕역,37.5445344743163,126.95143307723,10,0,529,120,1888,1701,4127,6711,5094,19235,3270,8577,2763,3081,3060,3049,3563,2665,3679,2617,3761,2908,3862,2798,5225,3529,8726,4673,17286,6316,6932,4586,5350,2406,6578,2703,5767,2353,824,1141,8,122,0,0,0,0,0,0
45,공덕역,37.5445344743163,126.95143307723,10,0,1064,189,1731,1284,5310,3345,4713,9705,2812,5368,1830,2996,2033,2633,2277,2597,2186,2683,2073,2580,2160,3056,2968,3740,4588,5724,8293,10055,3499,6535,2788,3408,3080,2992,2765,3934,570,1541,38,600,0,0,0,0,0,0
58,공릉역,37.6255391693239,127.073019988267,15,0,5960,949,13843,3639,36991,10761,41028,22791,21520,14619,15504,11350,14921,10749,16558,13201,15708,15213,15067,14090,17720,16717,19038,19908,19572,24554,22193,39003,12654,36102,10118,19200,9853,15989,8763,18434,2229,10523,3,357,0,0,0,0,0,0
59,공항시장역,37.5636738875486,126.810594967667,0,0,3227,261,4303,1100,8743,1850,9898,3802,5915,2818,4460,3288,4064,3121,4278,3435,4214,3984,4149,3908,3900,4703,4070,5832,4193,7097,4026,10069,2400,9498,2169,6108,1878,4751,1304,5616,359,3190,1,160,0,0,0,0,0,0
60,광나루역,37.545291967554,127.103516928227,0,0,4908,1518,15426,7835,39642,14881,44708,29320,24766,18271,16451,17762,15757,14123,17900,14853,17682,14858,17834,14565,18723,15076,22974,18317,24887,23318,28350,36797,14610,27030,9483,16886,9301,15398,7582,17645,1658,6753,1,90,0,0,0,0,0,0
61,광운대역,37.6238337612372,127.061690626596,1950,5,5865,991,12635,2500,31457,5864,30426,14092,15404,10132,12302,10150,11269,11052,11990,10356,12330,10777,11469,12550,11168,11855,14110,14460,14102,16594,11969,25168,7507,22265,5993,13523,5582,11053,4895,12524,1576,8344,64,2113,0,0,0,0,0,0
63,광화문역,37.5716441018605,126.976409565513,4,0,804,738,3068,23428,8225,77641,12950,258168,10664,102290,11550,37766,16974,36104,19679,30527,26612,32669,30532,27308,37877,24005,49677,23855,91118,27670,204039,36012,72132,16895,49681,7146,57819,5991,38158,5534,4650,1894,1,126,0,0,0,0,0,0
64,광흥창역,37.5474801664168,126.932012687537,3,0,2461,1131,6911,4183,18532,16205,23640,36010,14476,16155,10832,9192,10790,8072,10477,8647,10372,9228,11304,8961,11078,9904,12959,11084,18829,14141,31269,21357,13271,16633,8584,9799,7683,8830,6730,10611,1607,4010,0,110,0,0,0,0,0,0
65,교대역,37.4927359601279,127.013863444681,39,0,2090,6880,11797,25586,24036,57909,32252,157407,26187,134459,25460,65885,30762,50565,33548,45797,40448,52877,46601,48435,52857,44836,59311,44807,93020,52578,146634,66231,66193,39663,48181,21376,56824,18840,52215,21497,7416,7354,2,29,0,1,0,0,0,0
66,교대역,37.4927359601279,127.013863444681,4,0,1030,610,3125,6283,7659,19365,11815,48846,9190,32804,10416,14951,13009,9891,14482,9979,17280,10135,19577,9513,20982,8947,24780,9341,39458,12073,64876,15974,26325,8595,20226,3980,23182,3295,25489,3788,2311,1553,0,9,0,0,0,1,0,0
69,구로디지털단지역,37.4852533671941,126.901473089504,172,6,39043,5617,52721,21441,134488,86206,181032,265661,109815,151329,60598,57579,55346,43814,59631,45553,60674,52702,56676,52879,58541,61845,70019,71410,122975,105151,235564,163036,111787,128637,61395,76840,57509,74602,49513,88141,7416,34189,0,78,0,0,0,0,0,0
70,구로역,37.5033280243545,126.882291119347,10742,20,24371,5151,19269,12977,37746,33171,36408,81995,25363,41860,19342,23897,19688,20368,20323,20323,21270,22149,21918,21171,24294,23419,29336,26200,47664,37073,68257,44218,28879,30283,19173,19141,19090,19289,12550,18529,2971,11559,20,6830,0,0,0,0,0,0
71,구룡역,37.48702743532,127.059474850454,0,0,360,829,1312,5754,2648,9114,3772,5010,3317,2185,2721,1577,2488,1507,2453,2012,2555,1827,2529,2039,3328,2042,8033,2211,6309,2682,4607,3513,1954,2783,1086,1794,2140,1595,632,2121,170,936,8,27,0,0,0,0,0,0
72,구반포역,37.5014218099211,126.987446814026,0,0,516,236,1717,1778,4806,3438,5560,7021,3790,5142,3129,3524,3091,3922,3610,4293,4288,4982,4279,4021,4571,4432,5302,4613,6318,5427,8344,7631,4660,5255,3540,2721,3056,2528,2475,3442,376,1491,0,45,0,0,0,0,0,0
73,구산역,37.6112430835611,126.917253818257,1,0,4573,205,11186,2222,28787,7192,34856,7185,17331,4883,10904,4343,9919,5880,10821,5840,9882,6812,8721,6760,8664,8773,11753,10929,9842,12903,8854,19409,5040,19070,3870,9649,3916,8388,3478,8351,684,4054,0,396,0,0,0,0,0,0
74,구의역,37.537160863174,127.086171769557,30,1,13200,937,25164,8987,65637,14610,110399,40193,61631,21979,31547,18041,26411,17898,27566,20935,27088,23261,24845,24822,24614,31555,28493,36153,32775,51458,41586,90370,20775,65549,15764,40867,16873,37352,15623,45564,4071,15456,6,944,0,0,0,0,0,0
75,구일역,37.4962509036903,126.869682064958,219,19,3704,1260,9330,3112,27150,7815,23911,11663,12149,6966,9289,5665,8935,6156,8992,7372,8844,9311,8139,8505,8698,9750,11464,10672,11987,16507,12114,30184,5725,21716,4243,11327,6883,10522,5585,10381,1234,3983,14,216,0,0,0,0,0,0
76,구파발역,37.6364177567586,126.918834712255,166,2,8703,1405,29136,9809,83497,23604,77675,28833,39413,25218,26447,23980,25714,20951,26716,22607,24994,22946,23962,24616,28794,24489,33706,29144,34787,37758,29144,66760,18023,57210,13343,31755,12012,28550,10682,27283,1694,16542,7,2011,1,6,0,0,0,0
77,국회의사당역,37.5281356801658,126.917820861804,3,0,607,1731,1777,8658,3757,40486,6112,144018,4945,59971,7003,20073,9893,15656,11573,13594,13536,14977,16929,11804,19891,9478,24034,8747,56927,10086,111107,10244,34960,6678,20476,3303,20671,2963,15711,3268,2165,1061,0,0,0,0,0,0,0,0
78,군자역,37.5571496975138,127.079494769075,35,0,7463,908,10970,5072,33694,7445,47018,23971,20975,15793,12759,9671,11701,9955,12880,11395,13011,12706,11810,13280,12149,15560,13704,18383,17804,28216,23216,50905,13575,35692,10770,19615,12209,17637,11463,20162,2261,9289,0,2889,0,0,0,0,0,0
79,군자역,37.5571496975138,127.079494769075,47,2,8485,802,14200,6093,34675,8116,58390,27089,36350,17152,18845,10842,15907,10013,16648,10195,17328,11555,16075,12224,16282,15553,18310,17590,22958,25810,32485,41992,18643,34064,14320,19206,15353,17085,14279,19306,2778,7711,14,478,0,2,0,0,0,0
82,굽은다리역,37.545503186603,127.14287366158,0,0,6514,552,13393,2580,36434,6089,37797,14023,19723,8733,13708,7927,12717,7688,13044,9248,12647,10413,10948,10937,11023,11859,11535,15885,13123,19033,14081,33559,7748,28057,6154,14912,5847,14374,4724,15538,805,7237,23,823,0,0,0,0,0,0
83,금천구청역,37.4561799500543,126.893599593129,601,1,11163,1584,18653,5412,46942,16752,43917,29192,24416,11630,16295,8728,14495,8447,14873,11367,13787,12749,12380,12826,13084,16153,14534,18972,16422,27584,25709,43563,11409,35148,8278,17543,7019,17649,5726,16610,1080,8091,38,354,0,0,0,0,0,0
84,금호역,37.548255518095,127.015820115311,52,27,4345,481,10057,2931,26438,5019,34946,8885,21045,7129,13413,6261,11262,6812,11702,7865,11442,9059,9938,9733,9576,12371,10381,14035,11266,19986,11538,30369,7507,22019,5864,14223,4836,12334,4244,14889,798,4401,0,0,0,0,0,0,0,0
85,길동역,37.5378120875517,127.140007691428,8,0,4474,720,9416,3815,21867,6734,28011,17426,13438,13197,11046,9972,10839,9439,12377,10020,11554,11433,10481,10993,11160,12876,12441,14975,14692,16940,17040,27203,8648,20610,6465,11847,5935,8950,4875,10946,802,4219,6,506,0,0,0,0,0,0
86,길음역,37.6033767646759,127.025049999193,7,0,8846,2188,29234,8372,82452,12682,85811,28036,43439,20004,28594,16461,23927,17871,25889,19033,25261,22214,22825,21317,22919,25761,25937,33207,30929,45890,28872,73879,16956,61622,13010,34225,10216,31501,11078,34969,2438,15107,1,2,0,0,0,0,0,0
87,김포공항역,37.5619477391215,126.801906881417,2,0,305,2088,2045,8886,5428,13678,7854,18305,8620,12536,8299,11302,9923,12410,9883,14319,12358,15844,13780,15155,15201,14419,15326,14034,18353,16100,24234,15533,16563,9735,14077,4424,14507,2119,11270,1549,2180,696,12,62,0,0,0,0,0,0
88,김포공항역,37.5619477391215,126.801906881417,10,0,1363,1726,3928,12802,8909,19492,11357,24768,10309,19770,9846,17260,11708,19527,10996,21109,12631,25687,13986,24869,15781,23329,14814,24252,17173,30214,21373,31349,15555,20076,15403,8693,16542,3883,10637,3315,1556,1463,21,408,0,0,0,0,0,0
89,김포공항역,37.5619477391215,126.801906881417,0,0,0,0,0,0,0,0,0,0,0,0,0,0,0,0,1,0,0,0,0,0,0,0,0,0,0,0,0,0,0,0,0,0,0,0,0,0,0,0,0,0,0,0,0,0,0,0
90,김포공항역,37.5619477391215,126.801906881417,8,0,1829,1819,3353,11580,7296,20595,14905,22437,19360,12371,18312,9675,20969,10210,17729,12025,19867,13373,21556,12150,22139,11438,19657,11362,24341,14087,31920,13342,22904,8547,21718,4330,26705,1932,18981,1748,3918,866,96,378,0,0,0,0,0,0
103,까치산역,37.5322270449167,126.846426169396,125,0,23530,1377,42551,8172,125774,11495,154452,20912,74334,17286,43131,17814,37063,20199,38070,23794,36669,26961,31109,30348,28248,40134,30789,50880,30067,67312,29839,120893,18520,103670,14126,59774,12613,55494,11033,55650,3041,26127,9,761,1,1,0,0,0,0
105,낙성대역,37.4770896313732,126.963505817942,25,2,11258,1761,25229,8259,76184,20173,122504,37361,76276,29856,37754,24362,32290,20988,35719,24401,35287,26208,32458,28433,33271,33393,35465,39049,42907,57405,47322,95092,27321,82065,19705,51695,20740,48190,17956,60413,4319,20938,4,1078,0,0,0,0,0,0
106,남구로역,37.4869892904115,126.887970257024,21,0,20063,1694,15946,6647,30955,32234,33096,103754,21207,49227,13944,17262,12419,13181,14013,12997,13645,13951,13316,13362,15050,15538,18208,19552,39516,34223,78425,31653,34499,22144,17616,14540,13327,16715,9758,16217,2310,6710,10,183,0,0,0,0,0,0
107,남부터미널역,37.4851852186355,127.016191235414,10,0,2452,1284,8012,22447,25921,57915,37710,157828,29099,77899,27275,44551,30568,31584,33538,33398,35621,36288,35798,37033,40783,37270,50411,39219,82185,44660,135585,55942,61578,35998,40318,20899,39304,16390,30061,15026,4321,6529,4,28,1,3,1,0,0,0
108,남성역,37.4847862998916,126.970896635447,13,0,5355,683,12925,3550,38138,7068,54673,14574,30552,10590,17850,9840,14861,9207,13904,10802,14524,12165,13271,12684,12649,15214,12988,18230,13403,22990,14435,39298,8107,30697,7158,18221,7192,16767,5280,18577,1464,7510,12,311,0,0,0,0,0,0
109,남영역,37.5405585626607,126.971327574661,60,1,2250,1028,4562,7756,11529,22262,16957,53904,10616,25931,8222,10182,9145,9621,9834,9712,9917,10142,10242,9970,13013,9782,19512,11421,23630,14526,44910,21137,17952,14233,12267,8596,12855,7568,10651,9016,1557,3546,4,135,0,0,0,0,0,0
110,남태령역,37.4642463513885,126.9890807468,46,0,453,126,824,1693,2147,3799,2747,4956,2202,1685,1698,1191,1778,1216,1747,1334,1685,1251,2379,1390,1860,1374,2736,1315,3693,1594,3851,1823,1367,1555,1230,981,659,907,314,948,90,384,0,31,0,0,0,0,0,0
111,내방역,37.4876549159776,126.993577566695,3,0,2310,1360,6570,10602,17341,24118,26580,81894,18234,41318,13263,17156,13041,13522,13922,13506,16140,15310,16337,14534,17483,14516,21593,16358,35623,20374,70219,28310,24886,19765,16603,11134,17683,9877,13581,11316,2472,4088,5,1406,0,0,0,0,0,0
112,노들역,37.5126577019678,126.953082505556,23,2,3011,172,4712,1237,15822,2310,19869,3761,10506,2955,7163,3297,6002,3089,6133,3710,6170,4395,5607,4367,4980,6314,5737,6515,5895,8999,5836,15638,3583,12086,2642,7010,2173,6587,2024,7261,636,2886,0,22,0,0,0,0,0,0
113,노량진역,37.5135712531779,126.940888666744,359,3,14901,2043,22897,15222,60001,44521,89352,66385,46401,37367,29421,24443,26977,22798,31405,30610,35735,32358,29710,27808,29272,31829,33960,37311,46104,55627,57065,83259,30466,57444,29683,35769,37172,33937,43235,37993,5236,16193,3,402,0,1,0,0,0,0
114,노량진역,37.5135712531779,126.940888666744,362,12,4711,1718,6748,5330,17190,10918,23075,18170,12719,11766,9788,8849,10087,8923,11317,10322,13093,11603,11780,10426,11849,12148,13803,14395,18010,21398,20249,34773,12729,20809,12371,11786,14803,11087,14020,10881,2222,5070,20,231,0,0,0,0,0,0
117,노원역,37.6563403562037,127.063440071354,96,2,10237,430,24295,7008,54659,13097,55851,27153,31487,28528,24163,22750,23179,20710,25341,24603,25664,27103,25068,27755,25348,30793,28129,37302,28919,49411,31353,78175,22767,63595,23335,33811,24626,28673,23751,29205,3213,14452,7,2508,0,0,0,0,0,0
118,노원역,37.6563403562037,127.063440071354,40,1,6539,2023,14124,6566,37052,18266,36955,44147,27089,41192,25754,31165,27654,26840,29553,29096,30895,32688,31324,33124,33030,34815,36930,36083,37305,43235,43280,57059,27050,47849,26397,21792,22709,16815,22994,16880,3470,10453,18,806,0,0,0,0,0,0
121,녹번역,37.6008031568325,126.935814422277,12,2,9031,621,23697,3995,62828,7550,72337,18403,38574,9772,23447,8810,18689,9400,18922,10689,17411,11495,15490,12670,13932,15334,14797,23139,16280,30764,18532,54827,8901,48611,6397,27725,5680,24641,4202,26528,1019,11225,1,12,0,0,0,0,0,0
122,녹사평역,37.5347047736434,126.986536101295,14,0,878,412,1844,4552,4806,9892,7654,17370,5290,7914,4215,6183,4561,5821,4865,7284,5751,7584,6166,7405,7178,7682,10864,8336,13149,9763,18232,13589,10985,8805,8793,4700,10834,3764,12869,4497,1751,1703,1,88,0,0,0,0,0,0
123,녹천역,37.6446334490218,127.051374087263,981,12,4542,702,7951,1559,21639,3689,16962,4469,10557,2341,7703,3214,6398,3610,7551,4485,6480,4328,5382,4503,5409,5937,6439,7589,5278,8968,4707,14255,3537,13685,1942,7629,2198,6552,1373,7063,453,3203,37,475,0,0,0,0,0,0
124,논현역,37.5111873890283,127.02164858363,5,0,1949,1307,4498,18561,8498,45428,14716,123263,12854,98532,11050,39145,13254,23107,15343,20950,17478,23669,20658,21391,25077,19575,31318,21350,55095,24813,106779,33800,58995,19286,35662,9911,39331,8106,45426,8492,7625,4046,11,296,0,0,0,0,0,0
125,답십리역,37.5669676097486,127.05254316093,12,0,9320,1107,18153,6489,57017,14405,75820,34245,33243,16792,19247,11457,16938,11765,18305,13929,17976,14450,16305,14969,16411,17745,18782,22066,24466,30928,32096,57019,16700,41407,10335,22275,9286,20731,7806,23917,1713,10207,13,794,0,0,0,0,0,0
126,당고개역,37.6702060357364,127.079048472278,57,0,7987,18,20299,6722,54204,9968,50952,13354,29000,12392,19947,12802,17658,11823,17697,12948,17750,13254,16673,13641,16135,17089,16059,20163,17254,26416,16125,37682,12558,35828,7076,22951,5621,20917,4371,21731,995,11590,0,91,0,0,0,0,0,0
127,당산역,37.5347735014069,126.902607283905,30,2,6067,3104,15985,11409,44466,29588,54115,79742,31029,38069,21191,19254,20868,17514,21750,19722,21909,22686,21341,21509,23327,24226,26960,29102,41093,42730,61002,72648,26793,47893,19540,29403,22252,28823,20505,32851,4099,12279,2,149,0,0,0,0,0,0
128,당산역,37.5347735014069,126.902607283905,32,0,8040,1235,16022,5866,48722,15000,55698,41133,30170,22624,21824,14400,21924,15492,23095,17030,22620,18774,21214,18990,21727,21089,24048,25611,31188,39107,45127,64567,22735,48034,17687,29551,19156,26901,17420,32412,3101,12357,1,333,0,0,0,0,0,0
131,대림역,37.4933027323738,126.894926522974,464,21,34342,3260,30696,11061,65452,23991,90762,57606,60387,34373,33504,27805,28592,27862,31570,28127,31364,29477,29071,30072,29400,38313,34091,42394,42108,61977,53343,72668,27097,52357,17954,35430,15294,45032,11937,48755,3208,16797,3,321,0,0,0,0,0,0
132,대림역,37.4933027323738,126.894926522974,26,1,11319,955,8073,3382,14949,6418,20145,18087,15196,12242,10294,12035,10271,11536,11355,11315,11886,11864,12228,11751,13124,12986,13540,14021,15524,20755,17594,22025,11102,14596,8075,9939,7258,10931,6064,10399,1389,3772,5,172,0,0,0,0,0,0
135,대모산입구역,37.4915428672119,127.073070267893,2,0,1703,1262,3541,11552,9272,5195,9526,8899,5934,4307,4769,2924,4338,3062,4244,2982,4605,3359,3964,3328,4985,4123,9126,4474,10570,5510,8283,6813,3135,6022,1984,3735,1396,3389,1072,4020,327,1680,3,81,0,0,0,0,0,0
136,대방역,37.5133469218724,126.926478663143,494,8,5705,2032,10626,10315,29224,37140,37736,50603,20235,21999,14502,11500,14010,10135,14445,11608,15085,13566,14337,12299,16030,13675,18192,16199,31039,22668,47210,36973,17906,24912,12018,15831,11840,15748,9383,16068,1609,6386,42,496,0,0,0,0,0,0
137,대청역,37.4937011202813,127.079517936005,55,0,3190,1020,10337,6569,26421,14955,29184,26268,16546,10545,12895,7709,11168,7274,11370,9074,12109,8854,12184,9382,13950,11811,20595,13358,21164,16961,25864,25068,10155,21306,6955,13194,6007,11915,4788,14751,978,5743,0,64,0,0,0,0,0,0
138,대치역,37.4944858480401,127.063189830669,6,0,2250,777,10589,7861,24423,18100,22256,25358,13103,17181,10344,12290,10382,10970,12751,13508,13213,16141,12652,15380,15342,15937,17127,21157,23316,23118,27009,26242,17604,21527,11952,11436,14713,9897,24955,11609,2157,4227,0,8,0,0,0,0,0,0
139,대흥역,37.5476298835021,126.942468676122,14,0,1894,809,4947,4418,14799,14242,18732,31855,11548,14955,8397,9984,8366,8596,11011,10635,10303,10963,10008,9506,11119,10617,14326,11851,19950,13743,23981,21283,11725,13964,8394,8413,8602,7447,8938,8792,1933,4210,1,115,0,0,0,0,0,0
140,도곡역,37.4909757841746,127.055497705714,19,0,958,407,3788,4974,9072,14817,10797,21864,7161,15053,5464,7534,5773,6165,6055,6678,6553,7080,7346,6190,9517,6249,12259,6518,16287,7597,18030,10467,9435,8545,5922,4937,5367,4482,4617,5317,780,1657,5,775,0,1,0,0,0,0
141,도곡역,37.4909757841746,127.055497705714,49,2,1096,958,3098,5331,8454,14578,11442,23481,8164,16610,6790,8186,7170,7172,7875,7220,9060,8122,9090,7616,12024,7387,13685,8422,19554,9846,21756,13330,11137,10614,7334,6069,6665,5403,5214,6512,1032,2447,17,236,0,0,0,0,0,0
144,도림천역,37.5145008199738,126.882635530518,4,0,270,301,1105,869,3119,4712,3355,6240,2068,2305,1829,1618,1601,1255,2330,1920,1608,1368,2364,1828,2521,1542,2887,1769,3021,2276,4066,2928,2212,2533,995,1513,976,1387,576,1480,197,668,1,51,0,0,0,0,0,0
145,도봉산역,37.6895585326698,127.046053675471,17,0,4481,832,16831,4599,51949,7665,40330,13801,18598,15830,11162,17668,10422,13714,11355,12894,10764,13084,11170,11645,12370,12685,14062,14928,12744,19492,11009,34121,5497,40085,3561,22519,2657,19533,2413,19393,508,10715,26,1321,0,0,0,0,0,0
146,도봉산역,37.6895585326698,127.046053675471,145,1,5969,812,9729,2177,23422,3857,21140,7979,13360,11903,11265,17934,11608,15042,13998,15954,17053,12886,20043,11285,22915,10041,23636,9375,19495,8601,14894,10131,8543,8636,4931,4818,3253,4456,2207,4720,571,2671,26,742,0,0,0,0,0,0
149,도봉역,37.6791974925121,127.045525808977,239,4,6830,1108,9919,3223,19025,4111,18589,9460,12157,7027,10242,7877,9319,6704,8606,7410,9331,7989,9394,8715,8947,9954,8906,11332,9159,12265,9938,16905,4951,14917,3008,8684,2589,7736,1936,7042,571,4024,50,969,0,0,0,0,0,0
150,독립문역,37.5744680801684,126.957911446269,131,2,5261,779,5627,5713,15727,15235,18759,20796,13371,13516,11500,13685,10774,11224,11551,10591,11261,10975,12190,10454,13076,10342,15929,11304,14515,13470,16528,16657,7650,13554,5100,7901,4327,7407,3405,7899,643,3475,2,1878,1,1,0,0,0,0
151,독바위역,37.6184069418122,126.93303553594,1,0,1922,220,4708,968,13937,1547,13308,2859,6121,3496,3951,3862,3992,2814,3686,3003,3834,2809,3286,3135,3392,3547,3312,4760,2811,6173,2490,11147,1483,10935,928,5985,883,4787,690,5664,220,3077,1,232,0,0,0,0,0,0
152,독산역,37.4659611473931,126.889471139645,508,1,6953,2886,16136,14099,38379,41812,37202,95325,19723,43710,14677,16002,14017,10838,15627,12883,15016,13226,14407,11661,16006,14625,24129,16669,49310,23145,71658,38544,31090,32251,18792,16784,13168,19048,8888,18373,1747,7592,24,375,0,0,0,0,0,0
153,돌곶이역,37.6105378127498,127.056424528377,20,0,6095,762,13644,2779,35450,5984,39791,15931,19323,9174,12308,7801,10781,6904,11368,8711,11690,8974,10510,8973,9935,11160,10706,13887,11716,18733,12970,30690,9592,26321,5520,15186,4809,12206,4560,14871,1333,7048,0,161,0,0,0,0,0,0
154,동대문역,37.5716640012581,127.010617962363,635,9,12446,1948,8958,7019,14035,12473,18110,24539,16261,21668,15063,20102,16498,21479,19989,21254,20886,20567,22298,20122,23717,18620,24660,17170,24394,17516,23208,18008,16167,19044,12755,12503,12997,9819,11196,10846,2968,8304,14,1286,1,2,0,0,0,0
155,동대문역,37.5716640012581,127.010617962363,219,23,5808,3288,3146,14128,5313,38603,7208,80107,12156,66105,17921,55221,25367,49360,30016,39025,32531,38872,40610,37566,48372,30334,56312,22936,84284,16186,68937,12081,31578,14604,20496,10271,23279,6128,13380,5114,3305,5352,5,104,0,0,0,0,0,0
158,동대문역사문화공원역,37.5656454859141,127.008987189553,370,2,6366,907,4912,7262,6371,24842,8809,49868,9258,28484,8897,22879,12556,22971,14007,20297,15635,21127,18526,20780,24507,18265,30152,16166,36140,16620,40321,19973,23511,21839,16766,13307,18938,9789,14838,9667,3953,5607,2,405,0,0,0,0,0,0
159,동대문역사문화공원역,37.5656454859141,127.008987189553,305,3,7246,1347,4314,11452,6382,25696,7760,67249,7121,35560,7822,22616,10836,21299,13219,19252,15465,19530,20146,18639,24999,15645,29301,13612,46924,14363,69585,16069,35510,22951,25136,11176,25304,6938,20238,6517,5073,4018,2,459,0,1,0,0,0,0
160,동대문역사문화공원역,37.5656454859141,127.008987189553,1,1,176,283,517,2343,1080,9072,1801,30052,1206,11872,1030,3019,1444,2436,1739,2537,1902,2613,2385,2423,2845,2112,3451,1995,9843,2154,21137,2734,8270,1710,3738,973,3133,936,2668,1076,616,446,0,46,0,0,0,0,0,0
167,동대입구역,37.5590504141329,127.005296768227,23,0,1568,1019,2276,10126,5085,13680,7157,47730,5619,26076,4805,17252,5835,14635,7154,13004,8546,14341,11741,11874,13334,9064,18394,9194,36600,10770,33377,12392,15383,7566,10795,3799,12884,4348,12759,4551,1688,1750,1,165,0,0,0,0,0,0
168,동묘앞역,37.5732130585579,127.016346114277,57,3,2966,885,3409,4736,5917,9312,9010,25960,7473,17233,9045,19008,13153,25363,19826,29162,24786,31275,28310,29729,31549,24902,35889,18491,30155,13719,24454,10184,10429,6541,5583,4359,5400,4261,3792,5722,1036,2344,3,1198,0,0,0,0,0,0
169,동묘앞역,37.5732130585579,127.016346114277,122,1,4182,646,4781,4484,8793,9793,12300,27524,9995,19749,9316,13868,11620,14038,14728,13138,14336,14201,16164,14136,18438,13554,21001,12776,22801,12536,24102,15059,12089,11624,8094,7485,7106,7069,5843,8191,1515,7010,1,753,0,0,0,0,0,0
172,동작역,37.5029705640491,126.980299007575,18,0,507,251,1383,2673,5302,4316,6352,6508,4519,4301,3725,4002,3804,3624,3777,3794,3985,4448,4173,4865,5236,5274,6020,5269,7049,6199,7587,8192,3787,5346,2879,3483,2955,3058,2144,3129,539,1473,0,176,0,0,0,0,0,0
173,동작역,37.5029705640491,126.980299007575,15,0,1120,248,1579,1673,5150,1696,6055,2648,3386,1990,2501,1995,2464,1992,2553,1818,2631,1999,2556,2302,2759,2155,3329,2130,3550,2662,3987,4409,1879,3056,1345,1804,1221,1916,1194,2397,281,849,5,778,0,0,0,0,0,0
176,둔촌동역,37.527653243694,127.136210118019,1,0,3513,1113,9368,7968,24748,10632,27424,22090,13789,10855,10392,8498,10091,8359,11064,9899,10346,10335,10755,10212,11413,12052,15659,14276,17635,18349,21074,26589,10648,22686,7109,10654,7582,9818,5960,9615,987,5084,1,3,0,0,0,0,0,0
177,둔촌오륜역,37.5193972411893,127.138638475396,0,0,204,263,889,2723,3565,3949,4237,2305,2284,647,1231,718,940,1213,1176,866,1484,882,1530,848,1578,1074,4998,1141,2789,1859,2276,2540,902,2210,614,1248,500,1085,259,1465,117,600,0,6,0,0,0,0,0,0
178,등촌역,37.5507208571932,126.865558572269,1,0,5067,700,13718,3387,42066,6598,49625,17991,21339,11051,15190,8767,14127,9408,14955,11002,14612,12372,13404,12595,13116,15973,13951,17989,15131,25353,18519,40299,9108,36692,6439,19162,6031,15172,5622,17048,1314,8100,0,3,0,0,0,0,0,0
179,디지털미디어시티역,37.5760020219691,126.901263083061,141,8,5276,2902,13502,12808,44142,26807,46586,71611,23822,28210,13983,10885,11986,9648,12200,10511,11911,11638,11298,11568,12862,12910,17370,17345,30872,23261,50245,40940,20138,31570,10310,17634,8231,15996,6718,18013,1633,7176,32,1042,0,0,0,0,0,0
180,디지털미디어시티역,37.5760020219691,126.901263083061,0,0,804,412,2313,2073,9034,2237,9543,4414,4649,3541,3267,1760,3222,1765,3206,2085,2960,2402,2808,2371,3032,2382,4220,3578,5107,4970,5164,9124,2778,7249,1721,3778,1648,3102,1302,4156,501,1865,12,157,0,0,0,0,0,0
181,디지털미디어시티역,37.5760020219691,126.901263083061,66,12,2855,712,6430,5168,18356,25806,19351,90086,11003,39588,7273,12988,7611,9538,8594,10165,9690,9981,9765,8641,11985,8578,15377,9533,38146,13443,89102,23170,34314,15594,18240,8437,17137,7247,15628,7910,2518,3258,162,964,0,0,0,0,0,0
188,뚝섬역,37.5472379579492,127.047369170783,19,9,3313,2167,7978,13543,18715,35950,25326,135496,16865,86331,12674,34761,13809,26820,17157,28847,20759,32492,24174,30244,29425,28412,39919,29101,63970,32063,125967,42103,64115,25216,37639,12750,37325,11347,29069,13060,3576,4968,0,82,0,0,0,0,0,0
189,뚝섬유원지역,37.5315511803549,127.06677359647,13,0,4596,456,8890,3763,20358,6433,29722,13235,18344,8838,10293,7371,8505,8980,9072,11862,9494,15272,10088,18690,13311,21720,16927,22815,20568,26639,22857,35789,19396,26009,17764,15724,19288,13799,17266,15348,7029,5164,6,306,0,0,0,0,0,0
190,마곡나루역,37.5667089856741,126.827407353953,14,0,3300,978,9394,9487,27244,11785,27723,39718,12868,20806,9691,11436,9910,10452,11622,11262,12548,11866,12702,12476,14895,12957,18349,14506,28153,20420,38773,32500,17396,28551,13759,15455,16045,12728,13979,15151,2412,7058,14,249,0,0,0,0,0,0
191,마곡나루역,37.5667089856741,126.827407353953,2,0,1473,770,4065,8760,11337,20484,12196,52496,6483,23692,3715,7317,4227,5341,5210,5304,5353,5665,5585,5562,8062,5404,13622,5850,37412,8260,41791,13686,15350,8898,9548,5349,8003,4894,5777,6036,1278,2346,216,1682,0,0,0,0,0,0
194,마곡역,37.5602178056843,126.824683361642,2,0,1958,1434,7357,5519,24103,11953,21598,46161,11476,28501,9560,13115,9826,9681,9827,10698,10673,11617,11563,10693,13849,10929,18760,11583,25668,14167,38263,21020,15612,17700,9836,8882,9093,8337,7126,8894,1519,4353,5,324,0,0,1,1,0,0
195,마들역,37.6651909458561,127.057689943554,6,0,9529,1200,23325,2833,61538,8330,56045,10892,27319,8910,18990,8662,16958,9798,17256,10692,15969,12281,13934,13062,13425,16316,13243,19605,11991,26777,11361,41985,6786,45325,5291,23810,4234,20385,3596,21095,1054,11940,7,750,0,0,0,0,0,0
196,마장역,37.5661245472562,127.042966737062,0,0,2310,550,5818,3309,15935,6732,20334,16424,10423,7075,7409,5806,7073,5420,7592,5991,7172,6091,7315,5962,7499,6830,8269,7819,9500,10486,11980,15992,7268,11283,4491,6970,4362,6370,3839,7100,861,2830,3,269,0,0,0,0,0,0
197,마천역,37.495034582344,127.152841764562,21,0,6067,213,10810,3648,29315,4333,26682,10662,12611,6520,8609,6629,7464,5900,8528,6482,8108,6421,6812,6589,7039,9393,8445,11509,8736,13129,9180,21462,4178,19398,2996,10554,2214,9720,1379,9983,352,6647,0,728,0,0,0,0,0,0
198,마포구청역,37.5634799638172,126.903407498445,6,1,6498,1983,13094,7741,38899,14457,51633,34760,29077,17050,18784,12366,17234,10976,17376,13485,17467,14364,16042,14217,16553,16755,19171,18431,23556,24220,36196,40278,16332,30440,11338,18891,11696,17138,8872,20349,2401,8520,2,84,0,0,0,0,0,0
199,마포역,37.5395405068307,126.945846741087,9,0,2318,1373,7235,10787,25034,24033,33912,72700,16861,35944,12414,15742,12835,14324,14132,13852,15661,15144,15178,13374,16409,13691,20887,16212,33928,24314,60710,41407,23595,24414,17341,12911,20841,10770,17631,12024,2346,4905,8,522,0,0,0,0,0,0
200,망우역,37.5992888287112,127.092358315354,266,5,7475,782,11831,2772,28865,5645,24399,13864,15490,8334,12234,8500,11114,7811,11821,8652,11344,9836,10404,11052,9766,12366,11252,15670,11383,19551,11690,28415,7887,18922,5260,12909,4485,8774,3194,9772,1011,5584,4,361,0,0,0,0,0,0
202,망원역,37.5560790523854,126.910094334311,1,0,5158,773,9812,4902,27036,8907,37738,32096,22619,28478,15767,18516,15494,20233,17751,24330,19027,26183,19213,25741,20602,28209,23757,29616,27747,34557,37009,47532,24490,34584,19410,16826,21508,14705,18167,15169,3985,7584,0,25,0,0,0,0,0,0
203,매봉역,37.4869250553702,127.046697871026,6,1,1326,459,6454,8240,15951,22345,19229,68692,13362,39661,10605,14097,10795,11819,11291,11269,12589,11658,14118,10300,15965,11267,19181,12094,34762,16751,64548,23138,23786,15399,14148,8695,16425,7053,11400,8688,1461,3340,0,332,0,0,0,0,0,0
204,먹골역,37.6106157806661,127.077762184215,7,0,7445,612,12846,3161,35387,5250,43102,14873,24685,8947,14837,8019,13011,9132,13601,9722,13443,10691,12012,11718,11473,14023,12378,17021,13583,22968,14893,36062,9322,33190,6094,18121,5628,15725,4870,17027,1273,7783,3,500,0,0,0,0,0,0
205,면목역,37.5886968712998,127.08749925382,14,0,12650,763,22754,5443,58068,8774,74633,25029,39013,16676,22298,13830,19254,13013,20355,15379,20109,16389,18050,16995,17633,21347,19838,28096,21090,34910,20095,54713,15547,50902,9052,28481,7820,24398,6291,26704,1561,12956,5,984,0,0,0,0,0,0
206,명동역,37.5609598626754,126.986395560098,23,0,615,871,1965,12698,3406,42536,5085,104940,6262,58007,7745,33406,12004,31306,16586,30819,20577,29397,25072,26104,32253,23893,40442,20731,55264,20245,101761,19897,44835,11036,35465,4833,30254,3676,16917,3055,1755,1192,1,138,1,0,0,0,0,0
207,명일역,37.5513942973681,127.144039211129,1,0,4785,785,12680,3430,37308,6982,33111,12655,16169,9523,13643,8166,11940,8235,12873,8898,11712,9951,10598,10539,10909,12780,12686,16112,11450,19400,12038,33646,6981,32981,5480,13771,5748,12436,3857,12583,897,7225,3,589,0,0,0,0,0,0
208,목동역,37.52612248118,126.864607193772,0,0,7352,1120,19869,6488,59378,14452,71500,27847,32127,20832,21739,15481,20373,13860,20870,15756,20699,19135,19950,19596,19489,23374,21798,29203,25434,43827,28771,78256,15756,58136,12769,30093,12806,26862,14902,29058,2668,12194,1,111,0,0,0,0,0,0
209,몽촌토성역,37.5178028959182,127.112844983956,2,0,1474,954,3285,4767,10486,8561,14476,24604,8096,14918,5836,8363,5712,7346,6348,7709,6988,7810,7603,7765,9010,7615,11772,8125,15514,9669,21900,14422,9340,10248,6530,5885,6728,5110,6128,6023,1229,2086,1,100,0,0,0,0,0,0
210,무악재역,37.5825560184073,126.950230958933,6,1,1690,264,4968,2432,14438,3039,16398,6114,9267,3265,6353,3389,5233,3367,5088,3595,5038,4072,4486,4224,4198,5313,5149,6366,6210,8916,6458,14509,2902,12526,2116,7331,1825,6362,1462,7174,317,3308,0,0,0,0,0,0,0,0
211,문래역,37.5179720940164,126.894756202452,27,1,3509,1970,12672,9770,42295,36291,45909,123794,24516,55631,17694,21358,16693,18120,19616,20192,21192,21153,21213,20029,23449,21462,29582,24527,52836,32314,104777,54476,36135,37819,22996,19457,25895,17387,23565,19890,3401,6710,1,211,0,2,0,0,0,0
212,문정역,37.4860238552656,127.122475829669,2,0,2102,2984,6373,10775,22082,49115,30083,172018,17972,82088,13953,27231,15322,16256,16847,16755,19976,18902,22123,16549,25208,18146,29150,18947,70292,23028,130666,32570,44556,25115,27325,13361,26364,11088,21977,12708,3229,4726,1,105,0,0,0,0,0,0
213,미아사거리역,37.6132684542852,127.030082101855,52,1,14434,1860,36779,8013,95685,20011,103823,33185,58281,31249,39236,26763,36244,26093,36877,29636,37220,31379,34770,34359,37447,43123,42556,49936,40311,64434,41296,103367,30007,81869,28253,45338,18864,40523,15026,39536,3130,18078,1,1,0,0,0,0,0,0
214,미아역,37.6266400754021,127.026032022663,56,3,10518,1302,20408,4511,48207,16104,54935,31082,32292,16864,22672,14322,19787,15370,20777,14853,20730,16675,19347,18248,19756,22774,23009,25971,23041,31703,26804,48131,15844,39817,9652,23500,9133,21330,7526,20468,1584,11471,1,3,0,0,0,0,0,0
215,반포역,37.5081434093748,127.011581635081,1,0,798,596,2738,6816,7709,11643,10108,19121,6782,16063,4770,7991,5102,8504,6723,8817,7453,8612,7954,7309,9681,7566,13772,7354,15261,8340,17248,10700,11677,7000,8590,4239,9252,3793,8077,4297,1667,1425,11,108,0,1,0,0,0,0
216,발산역,37.5586687177515,126.8377251087,2,0,3019,2277,8846,13626,25897,32953,26609,108104,15971,54473,16105,26059,19068,23377,21923,24657,23181,26570,26050,23273,30837,22243,38389,24060,55701,29112,81796,42598,36327,32793,27440,15124,29737,12563,27846,12502,3703,5082,3,525,0,0,0,0,0,0
217,방배역,37.4814561264392,126.997535255649,3,0,2607,3446,9244,16438,23064,28739,31316,74042,23768,46808,17209,22564,16969,18262,18949,19238,21438,20876,22564,20963,24617,20079,32998,22215,43034,29274,68715,37548,27596,26750,19578,16453,20229,16083,17958,19236,3362,6048,0,3,0,0,0,0,0,0
218,방이역,37.5087434268367,127.126086986658,1,0,2135,764,7156,3468,19392,7962,16715,23582,9478,12717,7574,7235,7406,6313,8706,7791,8460,8612,7748,8399,8695,9567,10324,12547,12364,15763,19774,21089,10238,15584,7722,8624,9197,7120,9931,7292,1101,3540,0,375,0,0,0,0,0,0
219,방학역,37.6674311601371,127.044317183294,510,2,10740,1721,15341,5799,31003,8842,28366,19056,18316,10071,15879,10246,14152,9377,14829,10667,13734,11635,12851,13005,12264,15749,14388,18898,14395,19377,17871,29477,9172,26363,6480,13697,5331,12757,4267,11180,1086,6286,95,1475,0,0,0,0,0,0
220,방화역,37.5775887548875,126.81280121976,5,0,4498,4,10552,3343,27498,5830,24057,14102,12794,6517,9677,5457,8811,6360,9920,8022,10313,7448,8661,7653,9247,8655,11225,10097,10173,12181,10327,19418,4625,19508,3372,11466,2770,10266,2100,10687,568,5413,1,620,0,0,0,0,0,0
221,버티고개역,37.5478239071303,127.00672181283,1,0,706,330,1849,1306,4999,2675,7736,5092,4364,3217,2930,2444,2703,2320,3077,2223,2995,2513,2578,2886,3114,3220,3388,3346,4288,4327,5876,6424,3196,5092,1992,3007,1678,3152,1476,3833,366,1427,2,74,0,0,0,0,0,0
222,보라매역,37.4999181359871,126.920588561199,18,0,5526,1177,8196,6064,22292,18399,32901,41778,18493,13293,10818,8358,11235,7960,10800,9661,11684,10105,11021,9739,12463,10256,16243,11991,18109,17429,34021,28166,11676,22174,8334,12095,8050,10986,6301,12265,1399,5437,4,372,0,0,0,0,0,0
223,보문역,37.5855380945306,127.019994457457,4,0,3311,943,7268,3920,18411,8417,28592,18443,14467,9102,9002,6282,8210,5469,9175,6354,9221,6949,8353,6614,8912,7750,10920,8737,12466,12749,16213,20538,8002,16307,5619,10259,5834,9627,4817,12640,1716,5708,0,107,0,0,0,0,0,0
224,보문역,37.5855380945306,127.019994457457,0,0,400,260,748,1343,2136,3049,3282,4874,2588,2910,2122,1928,2045,1915,2207,1943,2370,2198,2217,2018,2653,2262,2974,2354,3306,2647,4097,3215,2065,2222,1436,1563,1472,1362,1433,1508,398,669,0,19,0,0,0,0,0,0
227,복정역,37.4707382891863,127.126701394602,1,0,4441,2579,10787,9999,30951,13194,39298,21584,22844,15279,14103,9863,11476,8428,12978,10061,12649,10253,12407,9610,14547,10441,18203,13322,24934,19546,28949,32647,15090,24724,8978,14561,7826,13101,7333,14998,2021,4615,11,409,0,0,0,0,0,0
228,복정역,37.4707382891863,127.126701394602,0,0,0,0,0,0,0,0,0,0,1,0,0,0,1,0,0,0,0,0,1,0,0,0,1,0,3,0,1,0,1,0,0,0,0,0,2,0,0,0,0,0,0,0,0,0,0,0
231,봉은사역,37.5142374358367,127.060220347306,1,0,1474,1068,4719,10659,8395,33223,9784,90517,7425,60872,7657,25448,10854,21111,13592,19655,16520,20507,18493,19161,21988,15203,28388,15494,51885,17271,83354,19115,40579,12342,26413,6619,24824,6003,18594,5567,2163,1904,0,1,0,0,0,0,0,0
232,봉천역,37.4824689098378,126.941682007426,57,1,15494,1601,28410,6977,80538,12965,120833,25972,69211,19413,36459,18569,29498,19008,30930,21119,31223,23682,26760,25115,26190,33318,28901,37185,29106,51948,32926,85683,18335,71795,14011,43682,13951,40237,10271,45612,2702,17569,0,105,1,1,0,0,0,0
233,봉화산역,37.6173454295036,127.091361241699,6,0,4726,977,14378,2731,47391,5667,39408,12097,17384,6428,12431,5745,10355,5470,10284,7686,10016,8866,9094,8491,8367,10162,9217,12548,11141,17704,9752,29768,5190,28932,3827,16792,3340,13438,2872,15435,738,6801,1,508,0,0,0,0,0,0
234,북한산보국문역,37.6121187346003,127.008245268539,1,1,2001,626,6684,2370,19654,5036,24129,8001,14119,5739,10049,4994,8265,5061,9056,5865,8778,6007,8297,6575,8102,8174,9463,9945,9226,13041,8826,20351,5481,17730,3330,10871,3279,9539,2456,9509,818,4288,4,4,0,0,0,0,0,0
235,북한산우이역,37.6629879523308,127.012739014317,1,0,1107,626,2587,6000,8332,4967,8338,5331,4811,7623,3521,8504,3949,6268,5362,4761,5391,4305,7016,3817,7085,3814,10403,3606,7047,3885,4436,5014,3278,4850,1752,2981,1100,2652,687,2464,250,1162,1,82,0,0,0,0,0,0
236,불광역,37.6100441859992,126.930302239049,16,2,8833,1082,18909,5768,51209,10458,60242,31911,33367,29400,22639,24780,21577,21744,22961,23029,23959,25169,23538,24686,24296,27542,25830,30063,27258,37408,29247,56708,16427,46993,12674,26838,11407,22020,8153,23897,1508,10900,1,166,0,0,0,0,0,0
237,불광역,37.6100441859992,126.930302239049,35,2,1370,406,3622,2948,9953,4248,12054,7792,6244,7410,5439,5377,5999,5735,6977,5850,7518,6219,8096,6558,8598,6987,10099,7795,9506,9298,9602,14662,5933,10922,4543,5917,3934,5101,2658,5794,451,2776,0,37,0,0,0,0,0,0
240,사가정역,37.5809295768134,127.088486427527,11,0,11434,1452,22939,6973,56493,12219,69974,25936,40401,15949,23842,14422,21057,14523,22121,15977,20794,17125,19311,18467,19184,23433,20888,28785,23464,38652,23455,63158,17140,54470,11428,29010,10806,24532,9175,26033,2417,11739,2,923,0,0,0,0,0,0
241,사당역,37.4765532208396,126.981549541445,176,2,11371,3144,24859,26096,68802,40445,98664,64138,67662,47904,40689,37909,38090,40059,43549,40997,44873,43323,44509,43184,44256,52509,50687,68034,64134,97748,86471,149928,55657,102507,47668,58459,61714,54864,61058,64189,9966,23184,4,1460,0,0,0,0,0,0
242,사당역,37.4765532208396,126.981549541445,99,27,9866,911,23064,14743,64653,21288,86295,33660,58383,24819,35461,19725,29358,21215,31546,23351,31841,23109,29797,22577,28029,26755,30264,35413,36855,51705,44277,80441,28009,54170,24499,30240,31162,27209,28319,30919,4143,13723,9,1242,0,0,0,0,0,0
245,사평역,37.50423262798,127.015267960691,2,0,777,173,2917,2593,8837,5238,10061,7459,5517,3347,3930,2784,3991,3028,4137,3379,4625,4085,3940,4069,5015,4022,7305,5372,6502,6521,6897,9569,4086,7624,2622,3977,2011,3813,1806,4754,392,1603,2,1,0,0,0,0,0,0
246,삼각지역,37.534432134689,126.972913902586,1,0,597,297,2102,3201,6464,10670,9857,24124,5681,9932,3980,6530,4114,6356,4932,6371,5493,6354,5812,5900,5995,6106,7307,6913,12452,9455,22705,14800,8846,9609,6323,5168,8254,4528,7215,5752,881,2022,0,142,0,0,0,0,0,0
247,삼각지역,37.534432134689,126.972913902586,1,0,1503,752,3319,4224,7704,13195,11293,22818,7260,8303,5091,5719,6319,5217,7118,5778,7967,5675,7902,5179,9272,5420,10786,6114,16993,7963,23115,12202,10287,7643,7248,5248,7802,5131,7500,7650,1782,2534,1,108,0,0,0,0,0,0
250,삼성역,37.5088119293814,127.063020940329,115,0,4105,4724,6837,37355,14406,119470,18448,320875,19071,219840,20698,87551,30268,63381,36648,56044,47001,62912,57745,51626,71461,44842,88358,43399,171805,45806,280986,52843,144261,28651,98535,14651,85904,12295,64266,12710,6998,4382,1,1712,0,0,0,0,0,0
251,삼성중앙역,37.5129614592575,127.053025579452,0,0,730,479,2091,4046,4867,13812,6111,39510,5163,28374,4480,11414,5039,6048,5853,6021,6734,7228,7544,5685,8138,6466,10457,6114,21086,7918,37443,10906,15767,7109,9081,4245,8773,3592,7314,3766,1180,1701,1,7,0,0,0,0,0,0
252,삼양사거리역,37.6213073258081,127.020479780253,2,0,1232,301,2689,909,6992,1996,8192,4651,5183,2947,4248,2781,3754,3132,4279,3243,4421,3425,3571,3830,3515,4693,3357,5259,3348,5373,3339,7521,2293,6415,1482,3464,1238,2754,1027,2439,352,1136,0,0,0,0,0,0,0,0
253,삼양역,37.6269118474291,127.018147716421,2,2,1068,287,2758,923,6567,1206,7652,3067,4774,2401,3540,2464,3120,2358,3234,2591,3475,2947,2814,3266,2690,4385,2806,4652,2769,4614,2413,6641,1711,5740,1149,3297,929,3107,525,2607,145,1234,0,0,0,0,0,0,0,0
254,삼전역,37.5045436968849,127.08735570822,3,0,3497,404,6828,2514,18906,3760,28649,9732,17892,6617,9239,4823,7850,4908,8052,5636,8135,6305,7492,6964,7250,7251,8225,9648,9452,14422,11947,22702,6442,20287,4754,11637,4295,10867,4191,12590,835,6461,1,148,0,0,0,0,0,0
255,상계역,37.6607133396972,127.073417091825,27,2,12648,173,35950,7685,88720,16141,75817,18130,40284,15024,27305,15653,24443,15305,24276,18471,23788,18814,21496,19911,22160,24018,24801,29681,23209,39230,22529,63952,13929,61123,9764,35217,10270,31095,10767,31725,2105,17780,0,10,0,0,0,0,0,0
256,상도역,37.5028526010093,126.94790894056,0,0,4377,1157,11158,4559,32304,7758,42796,16964,25142,13689,14887,10064,12814,9031,13618,9964,13615,11060,12508,11471,12252,13398,14211,16214,16853,21608,17587,37221,9630,28329,7707,16832,7471,15853,7463,17773,2094,7264,7,416,0,0,0,0,0,0
257,상봉역,37.5966989669088,127.085742145107,276,5,10379,1560,19449,7106,53346,13648,71951,32586,35477,20015,20533,14275,18578,13750,20088,15661,20360,17425,18962,17441,19923,19610,24191,24821,28706,34203,32097,58813,21342,52324,15245,26941,15963,23571,12056,25715,3009,11872,13,1235,0,0,0,0,0,0
258,상봉역,37.5966989669088,127.085742145107,620,31,6409,801,8811,2156,21433,4964,24769,8980,12989,6468,8990,4802,7366,5451,8757,5912,7373,6587,7458,7190,6970,8873,7186,10182,8345,13580,9696,23754,6449,20418,4869,11124,4564,8946,3198,10719,899,5044,31,915,0,0,0,0,0,0
263,상수역,37.5477625707505,126.922416317552,4,0,1019,758,3136,2784,7628,6273,12531,23940,7207,17852,5499,12380,5796,11616,7577,12719,9064,14674,9157,13488,9960,13380,12534,16089,17289,20329,25071,27861,16880,17951,14103,8445,18999,5976,23263,6839,3993,3066,1,41,0,0,0,0,0,0
264,상왕십리역,37.5644348647729,127.029270145908,55,1,5273,487,12879,5214,38534,12346,58724,36668,31267,19841,19184,12639,17338,11239,18497,13692,17651,14726,16355,15350,18054,17187,18184,20429,23121,30318,28904,48020,17337,33242,11552,19837,10623,19697,8361,22276,1648,8288,1,7,0,0,0,0,0,0
265,상월곡역,37.6065408142226,127.048811061085,23,1,4644,546,8977,1661,24557,3413,28401,12625,14031,6608,8845,4711,7760,4752,7778,5287,7547,5602,6791,6020,6457,7327,7329,8923,7850,12229,9701,18222,6641,16574,3106,9977,2567,9030,2131,10179,1016,5125,0,91,0,0,0,0,0,0
266,상일동역,37.5566634789051,127.165892145281,12,0,8820,782,31963,5380,90967,11721,60416,18101,30853,9939,21753,8422,18419,9411,18869,12520,17643,13612,15488,14158,16405,18364,18436,21809,19440,31087,19334,52954,10259,55464,7119,29594,5392,24032,4047,24464,1353,14719,8,1828,0,0,0,0,0,0
267,새절역,37.5908600347313,126.913562546888,3,0,9600,645,19907,4653,54764,7799,62501,15426,29871,9485,18332,8666,16407,9445,17910,11608,16639,13058,14407,13900,13778,17785,16846,20284,15640,27988,14810,48766,9193,41457,6204,23456,5623,20120,4851,22414,1116,11210,1,1812,0,0,0,0,0,0
268,샛강역,37.517366563071,126.92837506516,3,0,969,896,1872,4245,4537,15136,5925,37791,4143,13792,4156,6974,4869,6545,5056,5832,5942,5842,6449,6234,7671,5253,10128,6042,17610,7667,30612,11576,11278,6237,7807,3754,8344,2847,8596,3329,1475,1403,0,10,0,0,0,0,0,0
269,서강대역,37.5521312710891,126.93549404719,17,0,359,84,1357,1143,3214,2681,3925,7415,2751,5324,2315,2838,2302,2570,2612,2582,2594,2808,2656,2835,3140,2591,3976,3213,4930,3558,5722,4188,3245,2873,2843,1783,3658,2137,3097,1874,873,935,7,49,0,0,0,0,0,0
270,서대문역,37.5657492320378,126.966631900266,7,0,2665,1320,5841,14411,16890,68232,21945,157539,15116,41107,14449,18786,16354,14524,16659,14006,16356,19064,19131,14988,24145,12991,33187,12875,58383,16188,114351,23465,31049,13451,22606,8577,20445,8558,15433,9334,2183,3431,2,211,0,0,0,0,0,0
271,서빙고역,37.5195501176669,126.988393978303,38,0,779,585,2051,2560,3226,4235,2921,8390,2835,2937,2344,1853,2068,1621,2311,1809,2588,1973,2466,2038,3173,2333,4415,2215,6223,2567,6586,3599,2708,2737,1837,1591,1479,1615,1085,1640,248,716,26,190,0,0,0,0,0,0
272,서울대입구역,37.4812845008265,126.952695107942,3597,15,27641,2305,42338,12828,123151,30814,181999,64154,113655,59231,60875,47282,53691,42891,58562,46323,59896,51262,55223,54322,61118,59288,66678,70945,75372,101642,85900,172349,51454,141217,42056,80822,49865,72944,45059,91991,9026,32725,0,6399,0,0,0,0,0,0
273,서울숲역,37.5436349863299,127.044741683677,120,0,2592,473,5064,4738,13450,19640,21113,41419,14498,26333,8062,16717,7985,18155,10121,20849,12259,25847,15405,27096,21188,26935,29476,22860,39859,21235,51933,27439,27547,17789,17841,9146,16513,7670,11206,8894,1581,3147,23,538,0,0,0,0,0,0
274,서울역,37.5533163107152,126.969738305903,746,16,9151,6038,11560,33958,36079,87958,57500,181615,41250,118758,39862,58244,46185,49543,54505,49638,57758,51064,50662,47737,64574,51264,74463,52639,120907,62540,182945,70761,86590,46397,57287,29311,63411,25836,42161,21304,10028,7638,13,570,0,0,0,0,0,0
278,서초역,37.491835518946,127.007644026196,25,0,1260,4502,8928,19044,15581,48376,23456,122231,23348,86755,17766,35816,23052,25527,22488,20399,27650,24827,29408,21677,34352,19327,39811,19912,68076,20355,103262,22025,42410,14694,25840,8999,26887,8370,19746,10426,3614,3206,0,0,0,0,0,0,0,0
279,석계역,37.6150019340823,127.065670206166,807,5,7940,1812,19548,4163,49277,7593,53124,13172,27202,9927,18181,9280,15393,10481,15996,12450,15995,13231,13917,13983,13275,17771,14518,22309,14838,29218,13571,50274,10329,43769,7337,23244,7607,19919,6525,22490,2073,11053,20,608,0,0,0,0,0,0
280,석계역,37.6150019340823,127.065670206166,1282,32,6199,1670,10693,3762,24494,5218,27669,8455,18755,6547,14596,6808,12357,8225,12434,9492,11911,9954,10729,11881,10783,15309,10400,19195,11664,24236,10387,38290,8060,27081,6100,17212,6449,14292,5170,15244,1139,6243,41,755,0,0,0,0,0,0
283,석수역,37.4350857189035,126.90230723405,400,1,7439,2879,15938,6347,39236,11851,38534,17703,20608,11440,13088,9924,10960,6557,11461,7660,11232,8260,10592,8221,12167,10085,14181,12059,17224,18555,18953,31275,9804,27495,6307,14433,5307,15533,3937,15029,1116,6246,28,222,0,0,0,0,0,0
284,석촌고분역,37.5024642758104,127.096491224145,4,0,2324,307,5038,1965,14663,4607,23938,12159,15085,8721,8052,4871,6979,4551,7416,5389,7444,5856,6550,5871,6691,7258,8401,8145,8881,11437,12455,20678,6186,16388,4347,10451,4420,9044,3855,10017,738,4558,0,10,0,0,0,0,0,0
285,석촌역,37.5054105299706,127.106990485844,3,0,2862,625,5589,3780,15447,8108,22565,21271,12390,16605,9207,10438,8841,10808,9677,11852,9909,12267,9797,11981,10655,13602,12226,14406,14940,19979,19217,27276,10818,19570,8597,10529,9508,9906,9236,10017,1665,4372,6,456,0,0,0,0,0,0
286,석촌역,37.5054105299706,127.106990485844,1,0,2892,96,7754,1936,22534,4681,28410,9995,18793,9710,10809,6768,9723,7177,10453,7246,10606,8622,9927,8087,9979,9179,11822,11552,13137,15606,14863,25846,8850,21710,7510,11816,8256,11761,7478,13369,1361,4253,0,32,0,0,0,0,0,0
289,선릉역,37.5044937750958,127.048948120105,32,2,3144,6049,9898,36424,19806,105314,29609,269806,27524,204862,30445,90247,40952,62140,47695,53611,58483,59485,68070,53772,84504,45868,112112,43422,165894,48615,280251,53967,133512,31981,82047,17590,86659,15775,76931,18037,10552,6373,0,88,0,0,0,0,0,0
290,선릉역,37.5044937750958,127.048948120105,14,1,1081,1334,2074,10015,4522,41326,6574,127495,5337,81918,6544,34323,8605,22889,9987,19163,11376,21315,13256,17358,16195,14638,24891,16393,42669,19331,76154,23203,33655,13525,19583,6004,21337,5178,19395,5675,1930,2409,59,445,0,0,0,0,0,0
293,선유도역,37.5381532418967,126.89332482044,1,0,1594,1038,5051,3716,19089,11207,22254,39162,9760,16944,6765,6737,7039,7448,7947,6800,7997,8428,8244,8511,9172,8506,11748,9119,17959,11148,36431,19905,13216,15912,7452,7928,6714,6654,5345,7939,1283,3196,0,24,0,0,0,0,0,0
294,선정릉역,37.5109290398758,127.043613714302,4,0,1046,1211,3697,6261,8537,16233,9369,57574,6973,44776,5979,18054,6756,11084,7649,10336,9043,11123,10075,10414,11675,9150,15275,9743,25738,11244,50419,14021,27750,10043,13843,6287,13383,6176,11884,7174,1627,2021,0,29,0,0,0,0,0,0
295,선정릉역,37.5109290398758,127.043613714302,16,2,931,962,1923,5035,4819,12554,7282,53893,6204,41879,5200,14718,6056,8425,6662,7902,7667,8378,9219,7953,9960,7014,12542,7743,22862,8808,46463,10565,24017,6974,11205,3930,10896,3648,9179,4518,1530,1685,16,314,0,1,0,0,0,0
298,성수역,37.5445852156774,127.056057944077,34,1,5091,3582,9043,26496,23439,74257,30166,264973,22793,138959,19012,45732,19822,34927,23832,36401,28422,40953,31996,38086,37313,37874,49046,38513,97921,42886,221331,54660,96942,33425,55148,16456,60794,13423,45189,15150,5403,8272,3,1944,0,0,0,0,0,0
299,성신여대입구역,37.5929627242628,127.017120398018,48,5,5270,1587,17451,6010,45798,16404,54373,33132,33487,25227,23714,20148,23295,21178,27315,23750,27805,25192,26356,26725,29574,27705,33686,32322,37973,43038,42349,64501,27753,50023,24141,28121,28276,25328,25834,28301,4322,13001,1,6,3,3,0,0,0,0
300,성신여대입구역,37.5929627242628,127.017120398018,0,0,823,321,1223,1114,3408,3726,5990,7800,4058,6146,3829,5411,3769,5008,4491,5697,4903,6118,4734,6018,5351,6083,5852,6858,6458,8350,8242,10152,5499,6542,4899,3353,6241,2537,5241,2583,949,1075,1,8,0,0,0,0,0,0
303,솔밭공원역,37.655978257268,127.013259115174,1,1,1544,267,3692,1114,9275,1460,9362,2719,5894,2124,4131,2225,3561,2447,3759,3175,3496,3455,3468,3609,3118,3731,3502,4326,2901,4713,2422,7186,1728,7183,1027,4374,736,3393,602,3112,275,1950,2,35,0,0,0,0,0,0
304,솔샘역,37.6202451573205,127.013569926861,2,1,2573,220,9161,1156,28398,2945,27329,4527,13991,3129,8645,3121,7367,3551,7877,4263,7004,4772,5808,5513,5660,7118,6038,9281,5162,11821,4465,21875,2737,20645,2072,11412,1589,9860,1310,9650,460,4406,1,1,0,0,0,0,0,0
305,송정역,37.5611540020654,126.812412256202,31,2,3635,1264,7832,4230,21001,7678,22050,13449,13344,8026,10129,6928,9250,7086,9294,7868,9368,8163,8722,8242,9508,9526,10755,10688,12765,12753,13486,19248,7394,15741,5064,10262,4851,8778,4175,9973,962,4650,5,318,0,0,0,0,0,0
306,송파나루역,37.5110095122823,127.112653785965,0,0,1767,132,3431,1473,11085,3628,15264,9163,9752,7369,5385,4207,5363,5660,5333,5881,5969,7091,5435,6041,5640,6728,6479,8437,7687,11143,11030,18392,5909,15021,5397,6279,6511,5832,5357,6597,651,3156,1,20,0,0,0,0,0,0
307,송파역,37.4997113580808,127.112184453853,4,0,2225,538,8457,4536,23950,11038,28701,18189,15773,9318,11042,7232,10217,7228,10086,7932,9931,8863,9551,9145,11580,10179,13894,12533,12081,16482,15174,25626,7955,20832,5589,10745,4414,10761,3446,10392,826,4370,2,392,0,0,0,0,0,0
308,수락산역,37.6778778660233,127.055341897382,31,0,9149,651,21472,5030,53412,8885,47831,17764,26736,15960,18181,16633,16610,14727,17721,14984,18355,13835,17555,14006,18048,16686,18917,20939,18636,26079,18837,41100,11843,44162,7645,24715,6658,19888,4691,20987,1111,10879,15,1208,0,0,0,0,0,0
309,수색역,37.5808084927877,126.895641436132,0,0,788,650,1966,4429,3910,6112,4084,16825,3058,9373,2472,3150,2371,2287,2331,2241,2455,2962,2548,2451,2786,2384,4850,2939,8682,3760,12943,3585,6134,3169,3110,1894,2404,1334,1713,1740,404,947,9,95,0,0,0,0,0,0
310,수서역,37.4852843181606,127.10445168236,261,6,4332,1881,11863,14902,32622,32748,40821,52937,26520,30325,23984,21475,20269,16592,25966,20519,23627,20663,19173,20324,27528,23229,33690,26636,40138,32113,50407,46053,22834,34840,21394,22100,14469,18354,13539,21419,2851,6563,3,540,0,0,0,0,0,0
311,수서역,37.4852843181606,127.10445168236,69,1,3231,2692,6257,11874,22986,25653,34205,45221,21475,24363,19898,18077,16410,13192,20046,16350,18790,17047,14197,16468,21598,18253,25151,21980,34050,26933,40977,37460,17830,28031,18231,17380,12699,14763,13028,15954,4058,4822,8,458,0,0,0,0,0,0
314,수유역,37.6378664771973,127.025492107399,85,4,18995,3232,45694,11960,113560,20019,125789,56038,72932,36802,49651,28606,44992,28775,46513,32569,45439,35785,42488,40150,41791,47572,46709,59542,52769,75444,58036,125214,34256,108567,24710,61130,24663,55033,21942,53171,5153,29190,1,15,0,0,0,0,0,0
315,숙대입구역,37.5445952301115,126.972118127372,10,0,2695,665,7141,6370,16549,22450,24758,51287,16318,27200,12879,15642,13465,14944,15614,15179,16062,15522,16041,15930,18498,15666,25617,18050,32530,23175,47260,30579,22754,21333,16453,12210,18857,11573,16891,12787,2434,4821,0,1,1,1,0,0,0,0
316,숭실대입구역,37.4963136741799,126.953612918928,11,0,5276,574,12154,3270,36247,8466,50424,20299,27230,16057,16112,13404,14559,12946,15329,13788,16172,14775,14929,15817,15090,17363,17874,20775,21345,27290,19717,45578,11875,34866,10320,20104,11092,18977,10071,21252,2720,8793,3,515,0,0,0,0,0,0
317,시청역,37.5653372841193,126.977181235023,29,0,1711,3796,2774,19145,6323,61361,7526,163028,7875,72526,8998,29275,13448,28500,14924,24614,18213,24752,23570,20324,31035,17898,37855,15466,68024,16399,134734,16486,47318,7961,37477,4567,37770,3886,26507,3391,3808,1308,5,86,0,0,0,0,0,0
318,시청역,37.5653372841193,126.977181235023,12,0,798,1483,1913,14072,4621,64430,6556,202077,8281,78333,10999,23743,16577,20093,16496,19145,20447,20278,25439,18176,29786,16897,34204,13434,75797,14656,165474,14751,51800,6962,34558,3538,34195,3388,24317,3505,2547,1410,1,33,0,0,0,0,0,0
321,신금호역,37.5544716890745,127.020484110799,5,0,2757,269,6705,2929,20802,8281,27880,14839,14172,6831,8640,5532,7442,5471,7917,6120,7698,6843,6913,7152,7452,8719,10422,10867,10651,14390,9755,23956,6760,17060,4814,10215,3811,8976,3032,10496,784,4042,8,283,0,0,0,0,0,0
322,신길역,37.5167834187845,126.918353640838,56,1,1690,424,3473,2022,12759,4973,19766,15658,6974,6434,3823,2736,3678,2754,4059,3144,4088,3796,3388,3377,3622,3705,4637,5016,7124,8877,13937,17015,4495,10205,2745,6842,3388,7638,2773,9358,808,2948,0,25,0,0,0,0,0,0
323,신길역,37.5167834187845,126.918353640838,899,8,10233,1750,11133,5558,24500,16735,31611,29409,17489,10612,10626,6442,9751,6245,11645,7278,10163,8034,9532,7749,10443,8873,13490,11134,18492,16725,30165,23355,11764,16805,8026,11013,7541,11708,5722,12324,1423,4731,19,561,0,0,0,0,0,0
326,신내역,37.612487415788,127.104266904089,0,0,0,0,0,0,0,0,0,0,0,0,0,0,0,0,0,0,1,0,0,0,1,0,0,0,0,0,0,0,0,0,1,0,0,0,0,0,0,0,0,0,0,0,0,0,0,0
327,신내역,37.612487415788,127.104266904089,10,0,771,610,1916,4254,5484,4974,4724,5536,2639,1671,2086,1580,1879,1346,2049,1323,2116,1867,1976,1665,2429,2422,4300,2297,4411,3408,4087,4368,1625,3365,931,1710,794,1425,753,1328,285,744,3,94,0,0,0,0,0,0
330,신논현역,37.5048075124198,127.025469415506,31,1,2782,1739,12190,14573,31150,41755,42132,90326,27545,99339,22978,53548,28018,39753,33374,38446,36737,44874,39148,40805,44692,39709,53981,45008,73748,56988,107131,89588,76376,51739,55307,23870,66788,19982,67879,20561,7760,7767,6,571,0,0,0,0,0,0
331,신답역,37.5698350860798,127.04706653169,2,1,941,97,1652,422,6409,1036,9505,1721,3929,1043,2238,920,1858,1199,1747,1329,1808,1376,1626,1574,1628,2378,1566,2989,1807,4107,2192,9079,925,6927,572,3069,482,3390,433,3281,105,1504,0,9,0,0,0,0,0,0
332,신당역,37.5656622427144,127.019468475358,29,2,5767,1123,11158,8960,26752,17797,41495,36414,24942,22249,17231,17468,16307,17345,18012,17986,19447,19427,19269,19649,20502,20627,23571,23752,27688,30102,33194,42831,20935,29229,15222,17339,14295,17116,13200,19191,2940,7602,0,72,0,0,0,0,0,0
333,신당역,37.5656622427144,127.019468475358,114,2,7241,945,5565,6181,7128,16042,9724,38916,8310,21097,8064,12638,9358,9560,10606,8253,9162,9446,9286,7392,11660,6953,15325,8504,18309,10387,25121,15258,14235,17620,11789,8774,11601,6186,17122,8162,2916,8518,3,803,0,0,0,0,0,0
336,신대방삼거리역,37.4997428128212,126.928210959471,19,0,10028,1052,17610,7341,50414,13774,76371,30652,41555,18471,22699,12935,19672,12263,20595,13682,19106,15798,17374,16808,17696,19087,20184,24072,22786,33376,28804,60420,15212,47589,11368,27486,9891,24952,8589,25556,2204,11857,5,548,0,0,0,0,0,0
337,신대방역,37.487641446009,126.913500702287,127,1,24894,1612,36684,8705,87923,17888,127476,32590,75807,20969,40338,17353,32108,18061,32610,21397,31966,24153,27814,27175,27342,37055,30121,42781,34166,61560,41087,94152,21984,80570,15268,50793,12851,54315,10599,61124,2876,24884,0,10,0,0,0,0,0,0
338,신도림역,37.5089048744726,126.891307981962,3533,21,34844,4478,48583,16994,131342,39340,132892,109953,81823,66259,54502,56722,51764,53061,60138,56626,60935,59933,59270,57398,62499,64393,71345,74414,87917,102071,122852,167698,69468,120974,57102,66168,64635,62356,53968,77621,8335,31482,20,6274,0,0,0,0,0,0
339,신도림역,37.5089048744726,126.891307981962,534,1,2450,622,3477,2461,9995,7327,11308,16130,6537,6879,4725,4759,4335,4075,4733,4286,4774,4940,4651,4286,4864,5187,5646,5953,8541,9217,15673,13930,6132,8352,4671,4285,5227,4294,4085,4103,814,1657,13,873,0,0,0,0,0,0
342,신림역,37.4842644294274,126.929740854865,244,17,38964,3517,74981,19195,200062,34271,305689,62385,176604,49278,91241,40127,74800,41835,79789,48802,75849,56222,66593,63209,65906,79785,73228,94496,81370,141424,83844,245572,52325,212820,42400,126442,46537,119185,45549,135595,9630,58998,6,147,0,0,0,0,0,0
343,신목동역,37.5442703452459,126.883086765892,2,0,1906,312,5810,1883,17790,2933,17477,5771,8118,2410,4813,2380,4587,2868,4675,3009,4535,3682,3846,3798,4343,3887,5079,5541,5894,7607,5809,13744,2769,11502,1805,5998,1729,6276,1587,6718,481,2676,1,27,0,0,0,0,0,0
344,신반포역,37.5034947245635,126.996064297745,0,0,368,806,1846,6615,5482,7147,6576,8968,4349,5367,3249,3962,3179,3275,3768,3709,4303,4715,4230,4239,5646,4722,10515,4542,10322,5233,8889,7799,5081,5253,3468,2858,2994,2792,2602,3339,512,1393,0,11,0,0,0,0,0,0
345,신방화역,37.567486525915,126.817218331242,4,0,4563,581,11093,3049,27506,4613,25801,10994,13414,5861,9438,5203,8202,5997,8990,7405,9298,7433,8176,7066,8516,10129,9746,10888,8972,13622,9565,23619,5112,20328,4283,11439,3375,10238,2820,10819,802,5238,0,56,0,0,0,0,0,0
346,신사역,37.5164314730183,127.02029272549,35,4,2420,1467,5240,19804,10197,44201,17155,114242,13267,136267,16834,65990,21617,43271,25333,43825,29407,46811,36419,45270,43723,41770,55219,42495,84284,49665,135887,66628,93050,33281,59376,12626,75070,9289,68525,9166,6107,3801,0,92,0,0,0,0,0,0
347,신설동역,37.5760227613002,127.024452169845,270,10,8305,3003,7977,10434,17091,25832,24043,63325,15861,33302,14125,19803,16291,17286,17418,17570,20093,18026,19905,16474,21287,16554,28386,17789,38989,20608,57243,25423,21511,17926,13798,11004,14090,10231,10136,11666,2167,5136,9,294,0,0,0,0,0,0
348,신설동역,37.5760227613002,127.024452169845,35,0,1063,418,1366,2416,3682,5749,6043,13534,3801,8138,3637,6126,4611,6153,5786,6073,6366,6499,6979,5823,7946,5062,8722,4239,11074,4958,11365,5846,4529,4063,2748,2444,2571,2127,1816,2711,383,1221,1,236,0,0,0,0,0,0
349,신설동역,37.5760227613002,127.024452169845,5,0,966,716,1262,2126,1345,5149,1997,13664,1563,7132,1848,3840,2193,2823,2488,2726,2791,3213,3165,2609,4107,2079,4949,2016,6608,2288,10148,2029,4646,1348,2657,859,2583,659,2259,891,504,624,0,217,0,0,0,0,0,0
356,신용산역,37.5292591477099,126.967960513832,0,0,1275,770,3676,8824,10770,32654,15605,89809,11687,59758,9618,24098,12877,17902,13320,17177,15783,18843,16524,17209,19818,17175,25242,17970,47471,21876,85455,28544,38721,17863,25239,9567,24857,7856,18083,8094,3003,2341,1,0,0,0,0,0,0,0
357,신이문역,37.6017744461345,127.067379878325,1324,22,8942,990,14218,2136,37255,4230,38393,7708,20565,4640,14028,5580,11677,6716,11520,8044,11590,8177,9828,9492,9146,12340,8806,15796,8771,20152,8108,32097,5688,24737,3452,15405,2802,12566,2375,15214,825,5783,40,679,0,0,0,0,0,0
358,신정네거리역,37.5202158982635,126.852876007423,41,0,8373,1199,16685,3982,50001,5123,45249,11957,23024,7779,15188,7014,13308,8329,13699,9524,12477,11359,10919,11589,10638,15048,12133,18290,12954,27309,11853,46400,6988,37778,5215,19210,4257,16937,3891,18358,834,8885,10,511,0,0,0,0,0,0
359,신정역,37.5250131753674,126.856079401594,57,0,11760,554,23273,3879,67381,7675,81624,13046,35532,8458,18734,6520,15957,7372,15490,8847,14929,9783,12240,11212,11111,15090,12372,19385,14970,27111,14884,47130,7879,37697,5368,23089,4805,20381,4283,23997,1059,9742,1,112,0,0,0,0,0,0
360,신촌역,37.5551954567089,126.936962654548,51,3,4664,2490,11989,15914,32222,34527,45662,77093,31173,82694,29001,50145,34708,46268,42175,48947,43762,57233,45303,50258,52354,47299,63299,48992,80892,66012,81845,95031,56366,61017,56312,30120,68348,25838,67511,29186,10201,13208,2,36,0,0,0,0,0,0
361,신촌역,37.5551954567089,126.936962654548,0,0,153,5,386,1056,811,4116,514,4746,523,3049,498,1535,603,1009,788,938,616,2004,804,951,1150,800,1857,650,3171,1203,3193,1349,2072,1086,955,615,1154,283,1269,136,305,322,1,30,0,0,0,0,0,0
364,신풍역,37.5001085601918,126.909731743281,31,0,10110,1113,17093,4719,41922,11402,52217,20899,28761,10349,16147,8986,13385,9336,15015,10339,13982,11238,12498,11616,13167,14695,14555,18485,16375,27494,19080,42857,10515,32686,7324,18531,6414,17961,5058,19347,1345,7593,4,985,0,0,0,0,0,0
365,쌍문역,37.6485317952362,127.034651559958,109,1,22391,1017,52262,9134,124578,15059,131755,27599,72639,19627,46771,18709,38568,19535,38304,24196,35835,25543,31794,28330,30324,37253,33338,46410,34122,62135,33164,103459,21051,98817,14420,57606,12453,51672,9818,50303,2965,27069,2,402,0,0,0,0,0,0
366,아차산역,37.5522410643204,127.089561549724,0,0,8629,1445,15771,5146,43568,12984,58248,25206,29311,18886,19330,21088,17603,20011,21023,20675,22483,21601,23196,20212,23219,22235,28916,25734,27727,33940,26525,55427,16026,40233,11387,22464,13514,19115,13494,20750,1668,8663,2,280,0,0,0,0,0,0
367,아현역,37.5574025689432,126.956132861047,20,1,4375,1038,10956,7647,27341,12694,37235,22884,20691,11673,14690,9712,13796,9581,14739,10749,14451,11809,13043,12121,14037,13740,22281,15609,18521,21054,20232,31737,11891,24454,7973,14976,7064,14959,5111,17032,1346,6622,0,9,0,0,0,0,0,0
368,안국역,37.5764929103816,126.985419169939,21,0,1485,1592,2945,19314,5684,90652,7977,97038,7498,55401,8821,33202,12239,32587,17133,30811,19297,32531,24684,30266,35677,23515,47745,20282,91999,19577,99642,19419,41424,9428,30478,4834,29639,4193,18832,4302,2165,1926,0,18,0,0,0,0,0,0
369,안암역,37.5862930020861,127.02923341461,7,0,1346,1154,3018,5035,7522,16587,10413,36621,8700,29554,9882,18237,11585,12690,12860,14583,12433,17327,14334,13704,18204,11336,22306,11160,34732,13782,30205,18147,16623,13481,13912,8415,17547,8709,17932,11503,4954,5532,0,534,0,0,0,0,0,0
370,암사역,37.550133857734,127.127537293281,32,0,14545,844,26245,6456,79805,8661,102508,19087,46914,13586,25441,11472,22326,12705,23158,16450,22081,15627,18617,18286,18227,24303,20030,27422,20397,39922,21994,72362,12383,57296,9596,30172,8064,29346,6055,29635,1653,12925,3,1180,0,0,0,0,0,0
371,압구정로데오역,37.5275085746723,127.040591450907,55,0,1187,724,3231,10528,5097,22995,6999,70720,6260,104489,7785,46994,12406,35455,15742,32164,17650,32010,22462,29437,29188,27584,37680,29078,56617,34399,83310,42941,62562,21694,50179,7062,41781,4583,40926,4442,3363,1708,29,317,0,0,0,0,0,0
372,압구정역,37.5264849726148,127.028486030642,49,3,2827,1977,7469,21563,14969,44514,22818,134161,17748,154460,22024,70970,27816,51609,32146,45226,35433,48774,42684,46581,50714,38770,61391,41940,87196,47398,129862,55275,93332,30415,69986,13987,57848,10463,43851,11294,4803,3777,5,844,0,0,0,0,0,0
373,애오개역,37.553402332792,126.956655789028,0,0,2089,381,4999,3665,17328,10207,23742,30479,11102,12110,7805,6561,8008,6003,8132,6394,8768,7396,8076,7368,8882,7666,10555,8720,13346,11604,23367,20397,8112,13244,5307,7606,4866,7153,4070,8301,850,3446,2,1105,0,0,0,0,0,0
374,약수역,37.5544909839515,127.010887137982,88,1,5837,910,9881,5349,25175,15425,36893,34304,24790,20359,17662,13750,16028,13402,17579,13661,18295,14422,17172,15469,17353,16996,20670,20918,24163,26340,32329,39880,17226,25966,13595,16835,14386,15266,11969,17376,2065,5782,3,1125,1,3,0,0,0,0
375,약수역,37.5544909839515,127.010887137982,2,0,1198,236,1753,1789,4447,6276,6678,16753,4740,8182,4098,4887,4101,4304,4374,3983,4603,4754,4717,4433,5174,4730,6130,4976,8213,6050,12288,7867,6014,5367,4274,2855,4756,2629,4107,2968,813,1170,0,85,0,0,0,0,0,0
378,양재역,37.4845687081114,127.034146039501,67,1,4876,2382,13042,38771,34576,105902,43510,240644,31103,126230,28111,52654,31854,41024,35532,36816,38803,44287,42043,39054,50732,38228,65197,40772,121602,53458,201266,72799,88697,48225,56754,28751,56461,25197,43439,25136,4743,9860,5,740,0,0,0,1,0,0
380,양천구청역,37.5123744505094,126.865717870736,7,0,4500,858,11132,2130,32642,5283,29270,9515,15227,4565,9865,4176,8747,4649,9178,6359,8219,7089,7003,7088,6811,9106,7532,11347,8703,17211,8985,28312,3766,25217,2555,13609,2161,12296,2258,12916,588,7082,1,438,0,0,0,0,0,0
381,양천향교역,37.5680628368766,126.841960762674,3,0,4016,980,9128,4882,28954,10180,29158,37359,14350,17179,10513,8802,10840,8139,12322,8995,11860,8595,11280,10143,11936,9502,14368,11521,19123,16000,31484,26442,11628,25037,7278,15385,6593,12901,4722,15775,1128,7787,0,38,0,0,0,0,0,0
382,양평역,37.5255688309654,126.886419299276,5,0,1847,625,6286,2927,23426,9374,27039,39247,10762,15250,6806,5809,6670,5096,7017,5440,7191,5802,6841,5784,7673,6634,8374,8122,14767,11255,32840,21930,9781,15815,5584,8866,4695,8875,3883,9393,737,3937,1,20,0,0,0,0,0,0
383,양평역,37.5255688309654,126.886419299276,35,1,1276,51,3309,1804,6431,3860,5006,6831,3813,4450,4828,6039,4443,6954,5140,6364,5837,4599,6820,5440,6448,5797,7918,4916,7325,7108,6129,6025,3038,3998,2872,4627,1970,2606,1662,2188,150,2619,24,563,0,0,0,0,0,0
386,어린이대공원역,37.5479446668453,127.074641659468,8,0,3251,889,7169,10153,17609,15034,30271,47376,20812,29009,12559,18506,12058,16805,14170,19025,16330,21592,16712,19487,21359,18483,26720,16817,37966,20082,42226,28308,21350,22011,14808,13236,15990,12333,15473,14541,4271,7238,2,229,0,0,0,0,0,0
387,언주역,37.5073281931356,127.033952822224,4,0,1050,801,2419,7344,5862,18677,8324,57679,6902,40405,7383,18493,8980,10518,10590,10312,10707,11793,12215,10451,14022,9498,17902,9750,32560,10718,51667,12798,23515,9538,12925,5598,12439,5166,10945,5324,1782,2655,1,110,0,0,0,0,0,0
388,여의나루역,37.5271361343623,126.932981451891,8,0,1103,1123,2386,9985,5244,38711,7803,64669,4625,30197,4282,17086,5434,18853,7400,22573,8897,29536,13012,33413,20213,33252,30766,30250,51901,27842,70266,29172,39463,17347,42682,9552,36259,6215,26836,6117,7028,1880,9,328,0,0,0,0,0,0
389,여의도역,37.5211664706025,126.924638422261,0,0,1806,2385,3712,21224,9465,138935,13495,220304,11225,75337,11009,28759,16597,29015,16554,27502,21413,30161,25606,26344,34342,22938,45894,22198,126278,25822,176786,35772,68425,16815,52260,8550,49170,7123,34221,7420,3699,2316,3,1473,0,0,0,0,0,0
390,여의도역,37.5211664706025,126.924638422261,14,0,2494,1987,3855,19664,8361,126772,10184,153965,10439,63454,11855,28394,16670,28870,17370,27624,22628,29964,26508,26861,33516,23507,48157,21806,123936,23948,147948,27936,66451,17112,52987,8842,45312,7415,30222,7892,3439,2556,0,68,0,0,0,0,0,0
393,역삼역,37.5006600052986,127.036460414211,38,2,3075,7003,7618,43544,13696,128541,22786,329368,21623,264016,22125,97649,30165,59594,36128,50425,43888,57694,52516,48845,67809,43207,91072,40724,181514,44699,279053,51224,137375,31953,75214,17380,78151,14512,60337,16250,10106,6425,0,1,0,0,0,0,0,0
394,역촌역,37.6062193423086,126.922831293899,1,0,1765,239,5673,1870,15580,2694,15956,8159,7905,3823,5033,3056,4635,3901,5306,3973,5307,4300,4533,4421,3952,4903,4072,7020,4341,8872,5104,15810,2497,13454,1746,6888,1584,7124,1354,7212,306,3887,0,0,0,0,0,0,0,0
395,연신내역,37.6191924317614,126.921096185129,258,11,25850,1644,51120,10969,132227,23324,156340,33452,84049,34008,54694,32148,50403,33817,54447,36085,50904,40232,46901,41128,46929,51911,54188,62212,49159,81330,46731,133416,31766,120614,24707,63493,25369,59214,22710,60413,3714,32130,3,1266,0,0,0,0,0,0
396,연신내역,37.6191924317614,126.921096185129,0,0,0,0,1,0,2,0,2,0,2,0,1,0,1,0,1,0,1,0,1,0,1,0,1,0,5,0,0,0,2,0,0,0,0,0,2,0,1,0,0,0,0,0,0,0,0,0
399,염창역,37.5469649168106,126.874867107681,2,0,10705,668,25048,4914,74750,7959,80760,21984,40434,11326,24046,9529,20238,9806,21296,12611,19979,13700,16790,15084,16145,19897,17208,24271,20073,40120,24171,68965,12173,61695,8966,36595,8240,30820,6523,36310,1381,15221,3,218,0,0,0,0,0,0
400,영등포구청역,37.5258305232222,126.896668349116,29,1,5394,3152,12827,14022,40167,37368,46694,124204,29096,54979,22501,26043,23360,22300,24926,23756,25712,25935,27087,23837,27885,24329,35609,27258,53466,33783,106503,53435,35496,35581,24442,20185,25859,19341,20294,22044,3627,8584,3,214,0,0,0,0,0,0
401,영등포구청역,37.5258305232222,126.896668349116,1,0,798,499,2172,2504,7805,5720,10230,22537,4742,9526,3716,4440,3859,3693,4098,3698,4456,4347,4506,4323,5092,4312,6124,4838,9083,5923,18993,10380,6715,5948,3696,3414,3610,3235,3071,3867,659,1235,0,3,0,0,0,0,0,0
404,영등포시장역,37.5227021758736,126.905179576089,4,0,2326,954,5794,5426,19994,13995,28814,38505,12490,21990,8937,12997,10061,12175,11278,12549,12583,14713,12658,13165,14695,12260,17027,12532,22860,15503,35264,27724,14825,17555,9868,10173,8860,9682,7847,12047,1410,3953,0,4,0,0,0,0,0,0
405,영등포역,37.5156764732488,126.90785793823,3995,79,16433,5921,16995,20274,38874,56305,51267,119606,34937,85194,32336,62890,36745,60631,43656,62192,49827,66494,52693,62519,62406,64212,74392,65054,92141,78089,139473,104500,79951,65649,82457,33396,72181,25192,57325,25520,9083,9460,40,1768,0,0,0,0,0,0
406,오금역,37.5021280700015,127.127930582636,4,0,3642,10,7346,2363,24746,5432,28254,13797,14315,5575,8059,4339,6836,3947,7522,4830,7491,5461,5797,5073,5682,7286,7351,8198,9537,12863,11214,19905,4908,15241,3051,9456,2866,8214,2400,10065,369,3994,3,1089,0,0,0,0,0,0
407,오금역,37.5021280700015,127.127930582636,2,0,1136,348,2951,3143,8843,9186,8203,20716,4970,6374,4068,3646,4433,3002,5256,3424,4552,3470,4750,3441,5747,3706,8303,4483,9502,5635,14375,7365,4569,6572,3426,3854,3003,3274,2566,4304,554,1855,0,266,0,0,0,0,0,0
410,오류동역,37.4943827932767,126.844807477983,483,1,11720,2026,17886,5047,51884,6454,52812,11183,27134,9766,18030,9148,16180,9565,18179,11449,16381,12597,14198,13686,13951,16693,14751,18969,15196,27458,14742,44125,8382,38896,6353,22905,5751,20223,4862,20009,1251,8738,27,648,0,0,0,0,0,0
411,오목교역,37.5245304608023,126.875289218474,0,0,4368,1473,14127,8196,49094,28981,56513,75928,27341,53831,20320,29756,21888,27610,25725,27832,25894,31635,26641,29771,30484,30941,35892,36896,46489,48073,71592,76339,35970,49903,36393,25225,29240,21642,29329,22706,4616,9600,0,12,0,0,0,0,0,0
412,옥수역,37.5415518643708,127.017380201215,206,19,2659,898,9352,4506,23083,8639,30283,14661,18684,10258,13446,8915,11880,9534,12859,11020,13343,12141,12890,12359,14084,14691,15559,17084,16998,23251,17728,33691,11232,25281,8433,15419,7921,13574,6360,16476,1431,5228,12,364,0,0,0,0,0,0
413,옥수역,37.5415518643708,127.017380201215,1,0,0,13,1,51,27,47,142,211,63,24,26,147,17,182,17,84,18,23,40,5,18,26,343,28,398,66,33,38,410,16,34,19,42,13,14,11,8,2,0,1,0,0,0,0,0,0
416,온수역,37.4919566907461,126.823825338009,59,1,6958,931,15779,3942,49109,10736,58865,16642,24924,11174,12229,6602,10698,6330,11703,8190,10826,8516,9375,8771,11068,10577,14986,13138,14802,20810,13587,41662,6085,33861,4194,18347,4003,16504,3117,15864,852,8727,10,2593,0,0,0,0,0,0
417,온수역,37.4919566907461,126.823825338009,181,3,5477,1245,8508,3643,23521,9451,23461,13692,12920,8089,10077,6098,9418,5956,10625,7430,9907,7548,9082,7761,9650,8611,13173,11367,12194,13878,11562,22456,6008,19326,4064,10988,4247,9598,3155,10531,1149,4415,30,393,0,0,0,0,0,0
420,올림픽공원역,37.5163245709914,127.130963650207,3,2,934,850,4902,4052,12029,6702,11624,8855,6615,5352,5769,4839,5667,4564,6158,5165,5978,5654,5629,5571,7250,5414,9557,6177,10112,6778,9692,9004,5115,7429,3062,4492,2463,4163,1883,4055,461,2228,0,50,0,0,0,0,0,0
421,올림픽공원역,37.5163245709914,127.130963650207,22,0,1559,353,6438,4190,14475,5170,15803,12720,10888,7501,6895,5858,6099,5968,7025,6969,7189,7286,6916,7832,8246,7606,10899,8176,13728,10831,15880,16898,7051,13640,4751,9232,4063,8239,3275,10204,617,3360,0,26,0,0,0,0,0,0
424,왕십리역,37.5612611631671,127.037078472459,909,1,6444,763,10034,5335,25516,12577,43310,27348,26712,17198,17955,13063,17870,13071,19859,15861,20937,16646,20269,17212,22247,17841,27238,22023,32864,30597,36488,51378,22514,31452,20964,17001,27404,15136,29289,19666,4738,8173,18,69,0,0,0,0,0,0
425,왕십리역,37.5612611631671,127.037078472459,26,0,1983,353,2501,2535,6280,5955,8923,19113,4935,8103,4454,5824,4899,5555,5642,6266,5926,6909,5974,7034,6807,6991,7944,8029,9888,10138,14286,15709,8660,8897,7298,4675,7944,4342,7343,4845,1520,2024,7,987,0,0,0,0,0,0
426,왕십리역,37.5612611631671,127.037078472459,787,9,5209,772,8760,4589,25148,10856,39334,20349,25535,14124,14855,14816,14273,15408,16134,18967,17336,19517,17709,20600,19913,22944,21717,28086,25970,39685,26977,61295,19833,44325,18872,24777,23996,19354,23070,23512,3568,8649,117,2702,0,0,0,0,0,0
436,외대앞역,37.5962624346633,127.063683442668,471,11,4241,1155,7710,3140,17447,3651,21071,11954,12150,8627,10188,8092,9649,7873,10700,8369,10904,9201,10619,9844,11211,11145,12376,12806,14258,15834,11584,22497,7741,17837,6561,11204,7137,10713,6214,12497,1571,6082,58,789,0,0,0,0,0,0
437,용답역,37.5621209757458,127.050887278781,10,1,2491,227,3060,779,7092,1776,11736,3541,6308,2701,3939,2738,3623,2854,3904,3015,4369,3530,3807,3433,3911,4049,4415,5211,4442,6087,3573,9539,2132,6588,1401,4244,1048,5059,1150,5704,293,2343,0,0,0,0,0,0,0,0
438,용두역,37.5740549248114,127.038262110343,31,0,1079,135,1547,830,4711,2123,8115,6324,4006,3416,3218,3039,3591,3440,3731,2823,3743,3651,3787,3858,3968,3981,4334,3850,4602,4147,5808,7412,2333,5568,1428,2723,1302,2858,829,2485,168,1167,0,16,0,0,0,0,0,0
439,용마산역,37.573704888224,127.086757224194,6,1,4721,556,10518,2316,24183,4143,29750,10242,16454,6055,9069,5709,7588,5212,7482,5748,7246,5912,6721,6520,6748,8168,7287,10063,7226,12989,7715,21417,5157,19366,3032,11069,2558,10738,2052,12334,774,5112,2,349,0,0,0,0,0,0
440,용산역,37.5300691538724,126.964815014401,316,5,2911,4506,5195,27068,17823,65354,27990,138674,26831,90818,21602,62919,35367,46707,32572,47930,41425,50862,39555,46802,58657,46992,68392,47345,94667,51277,141587,58928,79282,43098,70444,25773,66351,19779,43215,14445,10204,3652,94,737,0,0,0,0,0,0
442,우장산역,37.5488098724086,126.836320627782,0,0,6019,769,20497,4720,55211,16637,54880,24431,27393,13509,20086,11910,19210,12716,20425,14025,20282,16680,18207,17391,20811,20063,23592,24174,22264,29524,19058,50657,11065,43080,8431,24068,7518,19513,6083,24059,1098,10116,3,346,0,0,0,0,0,0
443,월계역,37.6332595324731,127.058843478444,629,2,4880,1057,9181,2408,24373,7787,21231,9280,13316,7912,10713,5957,9687,6284,10056,7382,10310,9176,8756,7474,10074,9380,11786,12283,10876,13716,9237,19453,5201,18432,3775,9549,3459,8485,2738,9342,859,4058,59,665,0,0,0,0,0,0
444,월곡역,37.6018044220648,127.041447136594,12,0,6426,882,12500,3842,39430,7061,43642,23974,21484,15099,14966,10359,13202,10067,14359,11073,14058,11847,12790,12277,12244,14985,14622,19124,16647,23280,24052,38830,11666,31570,8413,17254,7344,16301,5404,16892,1834,8034,2,141,0,0,0,0,0,0
445,월드컵경기장역,37.5696211494292,126.899098167507,0,0,1000,861,2396,2844,8303,4851,10326,8861,5594,8016,5221,8328,6212,10067,6669,10344,7149,12526,9086,12669,12533,11202,15292,9629,13221,8932,15111,12845,6773,9580,5140,4933,6784,3832,3583,3636,744,1248,0,69,0,0,0,0,0,0
446,을지로3가역,37.5662761796769,126.990967458779,4,0,819,1671,1989,16640,5226,62629,8752,151973,9654,65803,10352,27380,13644,21764,15735,20187,18737,22259,22064,20037,26494,17738,33245,18531,71312,21770,127804,26287,49691,13063,33036,5937,41564,4658,38967,5279,4235,1715,2,145,0,0,0,0,0,0
447,을지로3가역,37.5662761796769,126.990967458779,8,0,568,854,930,8070,1817,32296,2994,76103,3608,32222,4732,14562,6313,12171,7571,11673,9508,11521,11497,10227,13010,9912,16287,9742,35154,11765,64695,13919,26241,6809,16517,2515,18532,1884,16283,1808,1821,818,0,71,1,0,0,0,0,0
450,을지로4가역,37.5666368996611,126.997623004003,4,2,905,1074,1550,11953,2869,33157,5520,78481,6526,40532,8345,21824,11643,19159,13149,16933,15437,17113,18145,16060,21988,14412,25297,12260,48722,10713,68876,10656,30907,5638,15511,2743,13466,2744,10597,3062,1864,1207,0,82,0,0,0,0,0,0
451,을지로4가역,37.5666368996611,126.997623004003,3,0,381,367,576,5472,1079,16588,1881,45077,2143,19383,3047,11062,4659,9212,5674,8362,6651,8008,7938,7190,9279,6130,11219,4950,22142,4516,37098,4798,16206,2412,8638,1201,7447,1054,5987,992,923,416,0,31,0,0,0,0,0,0
454,을지로입구역,37.5660229020616,126.982183995362,61,1,1643,1803,2751,27978,7699,114902,12957,284767,13447,134192,15937,57413,23623,48631,28525,40226,37862,39849,43327,34815,53550,30719,65832,30042,134872,33868,234919,39183,94935,19633,82809,9925,56189,9710,43748,10352,5154,3275,1,1281,0,0,0,0,0,0
455,응봉역,37.549945423924,127.034470070506,193,0,1169,286,2712,1191,6901,2102,7052,2371,4564,1805,3032,1584,2563,1682,3075,1852,2500,2478,2254,2740,2733,2824,3215,3534,3029,4173,2758,5296,1761,5382,1353,2618,1062,2052,980,2653,261,999,6,206,0,0,0,0,0,0
456,응암역,37.598483842041,126.915524077713,8,0,10909,1133,25484,5081,73686,9560,87630,17710,41799,11439,25372,12571,22588,13555,23863,16757,22912,17488,20043,19804,19372,24206,20860,29646,20813,41462,20875,73958,12942,61240,9613,37277,8490,29682,7331,33350,1688,15592,0,652,0,0,0,0,0,0
457,이대역,37.5568039038233,126.946422762684,57,0,2665,1184,6911,7958,20572,11643,26341,32355,16029,29627,11730,19271,13186,16136,17371,18210,19201,21414,17451,17590,19642,16097,25206,17503,33923,21058,30984,31263,18302,23738,14585,13776,15688,14053,12282,16709,2876,7518,2,27,0,0,0,0,0,0
458,이수역,37.4867887823399,126.982202828739,52,0,4090,1042,8572,8544,26686,15025,41048,41524,26069,26313,17326,17937,17109,16250,18496,16636,20267,18632,20194,18537,20675,20225,23867,24353,29026,31564,43095,51967,23394,34097,21317,17869,24574,15495,23336,16491,3972,6312,10,499,0,0,0,0,0,0
459,이촌역,37.5224489050814,126.973325479803,36,6,1133,625,4395,6630,12987,14125,16444,27160,11037,14488,8280,9888,8145,9990,9971,11929,9825,13155,10465,12447,12243,12642,18301,12652,19947,14660,23432,20623,9716,14439,6830,8585,7961,7401,5328,8347,860,2672,2,6,0,0,0,0,0,0
460,이촌역,37.5224489050814,126.973325479803,66,1,1156,532,3226,2164,8065,4930,8542,8051,7157,4916,5125,2969,4890,3004,5119,3447,5668,3940,5303,3687,6179,4472,7860,4821,9974,5763,10460,7503,5661,6222,4176,4035,4181,3631,2988,4657,678,1661,14,328,0,0,0,0,0,0
463,이태원역,37.534507184382,126.994320286276,4,0,2046,950,4345,6735,8811,11233,13514,26480,9693,20908,7490,13327,8184,13350,10251,14861,11910,16556,12548,15701,15825,16576,21146,19446,25196,23177,29296,30335,20974,21682,18383,10927,25493,7955,28228,8969,3618,4329,1,414,0,0,0,0,0,0
464,일원역,37.4839850708765,127.084120707858,3,0,2041,1367,7977,8706,21830,29554,20500,25794,14423,17003,13853,14589,14613,10705,14191,12220,13454,14211,14492,11677,18640,11256,24344,10136,31861,12734,16791,18286,8658,15603,5671,9359,3900,9217,3283,10911,840,3473,2,37,0,0,0,1,0,0
465,잠실나루역,37.5206944003696,127.103799674868,9,0,2888,1301,11170,9859,37680,22502,44019,37029,26770,23710,20188,16666,18881,14724,19371,18481,17666,18590,18929,16961,21213,16351,26567,17057,32030,22858,29633,38561,13884,28189,10075,16309,8001,15802,6336,18850,1582,6268,1,71,1,1,0,0,0,0
466,잠실새내역,37.5116083485804,127.08630073432,15,1,3943,772,15477,8677,52727,16751,68707,27172,40567,28195,25488,21092,23626,22387,25973,24955,26374,27136,24553,28886,26073,32549,33011,37035,33200,51340,37006,79253,27642,53947,24241,28098,27132,24508,29132,29107,5109,10137,9,417,0,0,0,0,0,0
467,잠실역,37.5133092702048,127.100215181119,84,10,10494,4444,43095,37172,108060,71598,154031,152933,107758,122393,67909,79843,66672,81577,74560,82984,81597,88254,83596,86447,91782,91337,111312,104468,151378,135678,193206,202206,120887,135526,115080,79176,99442,75009,82945,86809,13180,26898,5,234,2,2,1,0,0,0
468,잠실역,37.5133092702048,127.100215181119,1,0,1146,1986,3901,10254,8855,27809,12863,70771,8844,37059,8863,22218,10658,22820,12901,24343,15338,23951,18471,23306,22845,23919,27073,23545,38347,27680,59854,36432,33058,19679,29073,9434,27170,7037,23535,7125,3266,2207,3,315,0,0,0,0,0,0
471,잠원역,37.5128827106508,127.011401392881,2,0,889,461,4546,5134,11912,6916,15034,10048,9154,6587,6228,4451,6049,5061,6852,5696,6968,6314,6258,6333,7093,6757,8826,7655,10273,9983,10110,14540,6418,10247,4256,6060,4457,5852,3773,7447,585,2311,0,5,1,1,0,0,0,0
472,장승배기역,37.5048846414365,126.939063345317,24,0,7031,1057,11382,4113,29589,8220,42620,17650,24047,10131,14373,9235,12309,9206,12635,9232,13087,10259,11812,11159,11152,13405,12887,15993,13359,20421,15591,33430,8619,26536,6383,14962,6151,14380,5177,15292,1412,6756,5,360,0,0,0,0,0,0
473,장지역,37.478631698139,127.126172045084,3,0,5496,2230,16947,9278,46778,22909,53690,52369,28101,29967,17272,19637,15915,17058,18932,19659,18918,19606,18591,19604,21740,22668,27951,25825,36276,30659,49675,49304,25747,34050,20668,19447,18580,16043,13311,19433,2644,7446,0,10,0,0,0,0,0,0
474,장한평역,37.5615921805583,127.063699193793,5,0,6411,993,17053,10360,52515,21799,69987,68975,34141,28752,20177,16252,17532,14470,20005,15903,19888,16601,19089,16745,19994,19345,24153,23719,34897,33812,55639,60211,24774,44937,14592,24733,13125,21102,11354,23590,2236,9428,10,1019,0,1,0,0,0,0
475,정릉역,37.6026037968404,127.013521423935,2,1,1917,460,5181,1586,13616,2977,16406,6401,11238,3622,8020,3653,6902,3886,7413,4827,6951,4961,6183,5546,5945,6741,6257,7958,6909,10216,7234,15313,4045,12146,2496,7195,2238,6160,1683,5831,477,2073,1,3,0,0,0,0,0,0
476,제기동역,37.5781644906615,127.034935905941,340,4,4614,1979,8276,8495,21378,18388,30394,41199,21507,35867,24680,38524,33302,42149,38489,40384,40591,41322,42506,44080,44157,38746,40551,29726,39830,24626,37710,25796,17185,17802,10653,11304,9189,9670,7322,11387,2038,4462,9,355,0,0,0,0,0,0
477,종각역,37.5702216815202,126.983133839231,137,0,2075,4407,2943,22272,5344,96690,8178,214460,10244,123990,13860,50557,21921,42624,25896,37417,32201,39635,38994,32540,48817,27789,57355,28063,111891,32017,185999,38854,79174,18640,64407,6961,81655,4585,62774,3555,6340,1341,14,133,3,2,0,0,0,0
478,종로3가역,37.5704208439207,126.992144196794,143,25,3056,3179,2944,11751,4731,25513,7446,70038,10438,71795,17597,56584,29008,54924,36150,52780,44046,53048,47639,48562,53979,39634,58928,34289,69772,30892,95513,32492,57270,15733,40977,6094,48780,4650,43294,4657,5299,2093,16,384,0,0,0,0,0,0
479,종로3가역,37.5704208439207,126.992144196794,115,4,1672,3522,2458,16116,4665,40606,7265,104235,10549,60934,17689,48990,25749,47244,32376,45336,38726,41843,45308,41079,49407,34727,55193,28438,69705,23791,99780,20927,47876,11152,29853,5115,27703,3876,18766,3602,3084,1735,9,222,0,0,0,0,0,0
480,종로3가역,37.5704208439207,126.992144196794,13,0,491,893,1193,5651,1560,15255,1875,45552,3256,45061,4926,28748,7581,21916,8922,20810,10211,19295,12370,18702,15424,16216,17939,14097,28060,14329,50226,14275,32820,7153,16457,2695,19991,1906,15137,1933,2271,1065,2,111,1,2,0,0,0,0
481,종로3가역,37.5704208439207,126.992144196794,16,1,784,467,1851,5492,2726,14666,3799,40458,3755,32253,5160,24191,8855,24826,11871,24653,14697,25395,17570,22730,20739,20072,26713,19923,36251,21268,52328,26425,30269,13149,26338,4905,35963,3022,26583,3150,2709,1273,1,109,0,0,0,0,0,0
490,종합운동장역,37.5111302556967,127.07383586044,6,1,1485,844,5659,6258,16048,12564,22349,22668,15707,10533,9663,8733,8573,7138,9471,9404,9013,12016,8531,9630,11080,11434,14253,13658,17328,20690,17109,32017,8464,17226,8247,9412,15801,9715,11998,12175,1318,3679,4,274,0,0,0,1,0,0
491,종합운동장역,37.5111302556967,127.07383586044,0,0,1138,254,3331,2087,8933,4962,9897,10686,6549,7286,4405,4009,4637,3682,5230,4165,5370,4813,5086,4713,5396,5113,6568,5751,8987,9080,11742,13867,6639,9587,4886,5458,5652,4710,5551,5473,839,1985,1,10,0,1,0,0,0,0
494,중계역,37.6450777073231,127.064110346569,14,0,8594,1905,23082,4296,61886,15491,62337,24639,32139,11991,21296,8970,18962,9358,18936,12688,17798,14166,14840,13688,16452,15958,20961,18117,18207,26441,16931,44039,8800,44697,5726,24885,7321,21283,5104,23041,1363,11663,2,661,0,1,0,0,0,0
495,중곡역,37.5658680402426,127.084257974673,10,0,5406,534,12400,4426,31287,11052,46368,18674,25669,9215,14885,8156,12799,7557,13104,8078,12068,9214,11065,10026,11271,12867,16157,14535,15282,19314,13444,31191,9090,27489,5699,16198,4817,14405,4162,15898,1109,7130,7,136,0,0,0,0,0,0
496,중랑역,37.5948317972278,127.075662270251,151,2,5982,559,9197,1900,22188,2982,20262,5771,14048,4625,9095,4133,7817,4487,7784,5674,7748,6027,6870,6409,6515,8854,6422,10542,6607,14713,6792,22220,4504,15405,3055,9919,3125,7683,2303,9453,599,3615,11,219,0,0,0,0,0,0
498,중앙보훈병원역,37.5283953876669,127.148407138571,7,1,2524,565,11216,6131,36059,10766,35109,18977,22082,12852,16184,12040,15472,7714,12862,9949,9416,12883,13993,10160,15684,9431,14992,8965,17955,13627,12498,24786,4731,21669,3204,11612,2897,11457,2205,13808,446,4252,1,430,0,0,0,0,0,0
499,중화역,37.6025418946255,127.079293906515,5,0,9032,892,15290,4050,37494,8317,47104,23720,25677,11435,15751,8439,13984,8678,14752,10052,13950,11154,12596,11693,12134,14661,13874,18143,16280,23360,18347,36893,10964,35211,6917,19300,6919,17200,5239,19319,1497,8344,6,584,0,0,0,0,0,0
500,증미역,37.5581213429662,126.860633381512,0,0,2104,819,7304,3229,20720,8457,20652,33979,10608,11403,7852,7067,8027,5777,8288,6795,8492,7450,8187,7464,9078,9202,10057,9386,14539,11212,29480,19828,8754,17601,5731,8799,4741,7987,3285,8116,1009,3837,0,54,0,0,0,0,0,0
501,증산역,37.5837391279813,126.909472356624,8,0,7180,632,15116,3393,39704,5133,47882,10086,24474,7458,15832,7089,13329,8047,13503,9293,13138,10842,11830,11501,10837,14319,11955,17755,12431,23767,12372,41952,7521,32955,5073,19050,4439,18255,3827,19321,1056,8632,2,799,0,0,0,0,0,0
502,창동역,37.653320494324,127.047640454654,1722,10,15576,3120,36374,12249,93115,18492,79955,37803,49037,27716,38146,24937,34900,26764,36208,30200,35618,34305,32952,37966,34246,42082,38916,50230,39796,60654,40313,93969,23841,81411,18541,45788,18716,39368,15506,40154,3743,19680,201,2682,0,1,0,0,0,0
503,창동역,37.653320494324,127.047640454654,0,0,0,0,0,0,0,0,1,0,3,0,0,0,0,0,0,0,1,0,1,0,0,0,0,0,0,0,1,0,1,0,1,0,0,0,2,0,0,0,0,0,0,0,0,0,0,0
506,창신역,37.5794120427143,127.015283298946,5,0,2239,274,5182,1989,14857,6183,16403,6755,8401,2978,4921,2205,4178,2406,4246,3006,3993,3046,3407,2898,3767,3581,6452,4173,5031,5826,4499,9263,2631,7927,2242,4726,1545,4777,1413,5533,415,2290,0,31,0,0,0,0,0,0
507,천왕역,37.4868420352704,126.838581632594,13,3,6996,1351,16818,4651,49985,7911,60516,14281,30570,7803,15279,6841,12329,7818,12850,9754,12803,10120,11595,10797,11677,13274,13788,16856,14013,24246,12878,46297,7081,38801,4601,21088,3945,17725,3105,17655,833,8265,11,671,0,0,0,0,0,0
508,천호역,37.5384968055586,127.123919374783,6,1,6582,1670,11125,11886,27281,18619,34250,35999,20476,31687,18910,23691,21569,24400,25418,25425,26429,26458,27131,28269,31370,29525,35530,32407,41851,40515,47999,55362,35088,40449,32113,20023,27347,17891,23694,17762,3865,8240,18,564,0,0,0,0,0,0
509,천호역,37.5384968055586,127.123919374783,27,0,10940,1838,17053,10879,40966,13533,55446,26106,30904,22205,17735,17209,16713,16897,18334,19540,19248,21501,18147,21328,18820,26185,21173,30854,25333,41176,27522,66351,18730,47765,16210,24470,14001,21743,11855,21748,2262,9984,12,1051,0,0,0,0,0,0
512,청구역,37.5602029883938,127.013921207826,2,0,1556,273,3066,1593,7054,4162,10587,15521,6034,6453,4803,4218,4280,3387,4450,3675,5081,4208,4932,4222,4884,4218,6219,5121,7633,6660,13492,10053,7994,7216,4849,4426,4265,4236,3803,5408,1117,1889,3,111,0,0,0,0,0,0
513,청구역,37.5602029883938,127.013921207826,4,0,1566,444,2868,2544,6914,7233,9618,25268,5626,10449,4248,4784,3901,3828,3925,3654,4259,4136,4052,3833,4433,4449,5324,4892,6908,5687,13087,7382,8628,5467,5096,3534,4691,3329,4274,3776,1160,1650,4,202,0,0,0,0,0,0
516,청담역,37.5194483760543,127.053708883222,11,0,1987,3667,5986,27050,10050,59048,12956,146644,10841,95240,10384,36640,13081,20701,15333,19390,17661,21600,19992,18330,28768,16284,37422,15877,60125,17453,109758,19262,56399,12766,31124,8168,28626,7744,26384,6244,4014,2725,4,1252,0,0,0,0,0,0
517,청량리역,37.5807185198462,127.048499848096,1039,35,9934,4182,14336,20446,36061,17822,44330,35547,31593,32972,30505,34110,32512,37508,36952,37808,38987,39268,40716,42791,43630,41866,50976,37809,46993,38071,42166,47049,23425,31119,16683,17988,12712,16774,8794,18519,1932,6710,12,829,2,0,0,0,0,0
518,청량리역,37.5807185198462,127.048499848096,1316,15,5746,1347,8715,9875,27172,13759,39017,21723,20974,28459,25564,27370,20452,29022,23983,26227,28552,27922,25431,31034,29472,31962,30535,32044,27945,30024,32291,46496,20492,31966,22786,17045,14216,16478,7961,12461,2699,5347,28,1828,0,1,0,0,0,0
525,총신대입구역,37.4867887823399,126.982202828739,75,2,5727,839,15463,11117,46534,18108,57006,42121,33787,31841,24825,23039,23646,21730,26450,23841,27033,26351,25689,28516,26221,32448,28848,37755,34054,49837,42340,73316,25454,48034,21114,26174,21143,21956,18114,23230,2334,9272,1,46,0,0,0,0,0,0
526,충무로역,37.5613929793562,126.994137154178,0,0,0,0,1,0,0,0,1,0,2,0,0,0,3,0,0,0,2,0,1,0,1,0,2,0,3,0,4,0,4,0,4,0,0,0,4,0,2,0,1,0,0,0,0,0,0,0
527,충무로역,37.5613929793562,126.994137154178,44,6,2509,2790,3810,18065,8454,54842,11663,176455,12204,93962,12862,46314,16692,35855,21260,32586,25173,33046,31981,28895,36461,24897,46154,24804,82795,27346,144567,31330,66572,17688,43908,8917,47916,8407,38097,9297,6168,4201,7,423,0,0,0,0,0,0
530,충정로역,37.5597479688989,126.964484159441,27,1,3100,988,6007,5566,15526,20771,20862,59434,13389,26787,9395,12168,10222,9565,10787,9943,12267,11535,12013,10219,13068,10267,16120,11258,24945,14556,46842,20617,15378,14846,9409,9257,9282,9548,8067,10957,1223,3982,1,64,1,2,0,0,0,0
531,충정로역,37.5597479688989,126.964484159441,16,0,997,204,2334,1615,6572,9816,9086,33682,4588,16864,3845,4462,3920,3551,4557,3931,5032,4377,5591,3743,5476,3697,6306,4071,14103,5613,29349,9040,8168,6082,5327,4047,5039,4009,3931,4923,582,1868,1,139,1,2,0,0,0,0
534,태릉입구역,37.6184559179347,127.075391704694,8,1,3943,910,6948,2823,18526,3946,21015,7673,10517,6096,7034,4863,6636,5596,7041,5796,7230,6391,6816,6853,6734,7775,6861,9648,8510,12982,7919,22217,5596,18975,4044,9817,3747,9693,3507,10506,1103,5905,2,662,0,0,0,0,0,0
535,태릉입구역,37.6184559179347,127.075391704694,146,1,6607,1402,7843,5060,21289,8511,24862,16669,16406,10104,11772,8119,10075,8024,11081,8869,11132,9459,11054,9607,11893,10342,13644,12516,17276,16042,17544,22621,10765,20997,7254,11751,7615,11506,6225,13326,1769,5715,6,1826,0,0,0,0,0,0
538,하계역,37.6364621312659,127.067977670097,12,0,7987,1202,23972,6414,68615,17138,70223,23331,36642,17783,25045,13846,23224,14558,24197,17846,22593,20550,21428,19800,23640,22285,27010,25651,26684,33007,23345,54723,13677,55780,9954,29666,10070,26114,8869,28438,1998,14217,2,822,0,0,0,0,0,0
539,학동역,37.5143566006166,127.031897380783,3,0,1778,2439,4272,25517,8265,53770,10957,188240,10233,138279,9859,44886,12375,24277,15431,20097,18370,22625,22877,19427,29180,16582,37943,16380,69856,16691,165498,18876,74654,11814,36578,7097,36915,6457,30919,6101,5617,2679,10,171,0,0,0,0,0,0
540,학여울역,37.4968779978912,127.071153022687,1,0,539,286,1783,1764,3740,3346,4089,7762,2580,5418,2073,4995,2646,3717,3500,3755,3728,4073,3901,4080,4886,3706,5674,3119,7139,3333,6960,4395,3112,3140,1831,2007,1762,1693,1176,2163,193,817,0,2,0,0,0,0,0,0
541,한강진역,37.5397871707134,127.001742505154,5,0,557,566,1262,7198,2826,18842,4650,34874,3761,26407,2759,14263,3449,14258,4438,13421,5763,18501,7344,12850,11477,13160,18127,14091,27425,17092,32567,22645,22246,11329,16150,3063,20719,2722,30658,2976,1973,1218,5,756,0,0,0,0,0,0
542,한남역,37.5294253166994,127.009186483335,76,1,1650,670,2566,3871,4546,10514,5797,14358,4518,10793,4521,5362,4437,4298,4712,4576,4654,4974,5395,4402,6687,4795,7828,5596,13628,6468,14546,7146,7093,6015,5075,2722,5323,3012,5904,2678,933,1260,17,361,0,0,0,0,0,0
543,한성대입구역,37.5884047925683,127.006000831773,55,5,6439,1002,12289,6873,30879,19102,37991,30762,23975,22084,17999,16117,17015,15282,19710,17112,20086,18505,19088,17474,20824,18258,28030,21340,30161,27797,31642,36878,16936,29953,12824,17856,12842,16282,11285,19380,2246,9441,1,1908,0,0,0,0,0,0
544,한성백제역,37.5165199821667,127.116440092824,0,0,725,195,2549,1104,6621,1715,7388,5754,4481,3755,2916,2426,2800,2498,2985,2468,3215,2675,3093,3213,3535,2799,4650,3462,5067,4078,6768,6705,2930,5708,2288,3171,2074,2848,1540,3281,299,1522,0,12,0,0,0,0,0,0
545,한양대역,37.5557087864257,127.04361716382,4,0,840,236,2153,5334,4859,11751,7959,41587,6399,33381,5698,21139,8379,13240,10835,16216,12114,16597,12347,13658,14120,9031,20717,8280,30740,9711,29600,9992,14323,6101,10089,4167,11453,4233,9798,5267,3238,2224,1,18,0,0,0,0,0,0
546,한티역,37.496274896741,127.052900695072,19,3,1911,1034,7008,9303,19990,25343,22904,44301,13815,37652,11317,22198,13002,17470,15426,19336,16139,24015,16372,17407,20440,17155,25144,21984,34325,28083,42359,32604,27005,23379,28092,12170,20743,10816,23042,12176,3065,4300,59,231,0,0,0,0,0,0
547,합정역,37.549901442065,126.914447288631,52,2,6741,2975,15993,13832,42669,31935,55140,88758,34808,72499,23959,39428,24407,38836,29208,41676,33310,47127,35203,44564,37541,44168,44862,51128,63799,68010,106312,103825,68586,67338,50862,32140,65656,27310,67329,29887,10528,13191,2,285,0,0,0,0,0,0
548,합정역,37.549901442065,126.914447288631,6,0,3361,1277,5477,6013,13323,16209,19900,41778,13111,26600,10590,15193,11488,15790,13415,16715,15403,19047,16384,17214,18416,18105,21855,21019,28004,26357,45291,38599,28311,24517,23858,11465,31532,10400,31027,12174,5120,5674,0,44,0,0,0,0,0,0
551,행당역,37.5573529744311,127.029493728053,2,0,3861,731,10913,2574,32588,5302,43038,9737,19704,6494,12146,5204,10720,5659,10732,7135,9909,7794,8753,8257,8894,10437,8601,12261,9236,17556,9956,31811,6053,21835,4623,12989,4075,11573,3820,13851,926,4421,12,217,0,0,0,0,0,0
552,혜화역,37.5820258983338,127.00192463086,25,0,2525,2706,6622,21125,16545,48170,20583,116948,22307,74935,28004,49805,31765,44067,32368,50308,34990,63612,43117,58537,59946,43234,67778,41897,88153,49565,108881,60916,57317,45021,52891,16093,79302,15653,62063,16540,8579,8023,0,157,0,0,0,0,0,0
553,홍대입구역,37.5568635281461,126.923764988566,231,3,10276,2834,20110,13400,57032,33855,73116,95058,45709,101760,33555,67649,38062,72394,47253,90740,56454,101962,59631,99572,70667,100412,90563,107648,114981,132990,146843,176653,111473,114518,106450,51829,149997,38117,154158,42689,19950,21089,112,1937,0,0,0,0,0,0
554,홍대입구역,37.5568635281461,126.923764988566,3,1,274,98,570,671,1339,2308,1706,5554,1206,3669,860,2569,1050,2280,1381,3033,1697,3182,2062,3413,2109,2907,2853,3813,4300,3822,5545,5054,3655,3494,3463,1471,4852,1508,5265,1597,1021,723,10,79,0,0,0,0,0,0
